t,__msgtype__,format,header.__msgtype__,header.frame_id,header.stamp.__msgtype__,header.stamp.nanosec,header.stamp.sec,pitch,roll,status,std,t_last_reset,time,x,y,yaw,z
1724164479.8019543,sensors/msg/DVLPosition,json_v3.1,std_msgs/msg/Header,,builtin_interfaces/msg/Time,801519155,1724164479,1.5903270497520907,-2.0028192596301273,0,0.0,1724164477.9570637,1687100438.5032969,0.051770288084277374,-0.014072689780224723,-0.6325550836240115,0.010188619705529086
1724164480.0078282,sensors/msg/DVLPosition,json_v3.1,std_msgs/msg/Header,,builtin_interfaces/msg/Time,6940126,1724164480,1.8431489647540398,-1.583715272294091,0,0.0,1724164477.9570637,1687100438.7234929,0.06442200027611553,-0.009308391495835778,-0.6101831127885396,0.02506594755191337
1724164480.2229679,sensors/msg/DVLPosition,json_v3.1,std_msgs/msg/Header,,builtin_interfaces/msg/Time,221364498,1724164480,2.1500456471360385,-1.2336937758018556,0,0.0,1724164477.9570637,1687100438.9345489,0.07358551059075814,0.0023624016014579946,-0.7643659078108822,0.04765350979853286
1724164480.453055,sensors/msg/DVLPosition,json_v3.1,std_msgs/msg/Header,,builtin_interfaces/msg/Time,452746391,1724164480,2.2952865685825277,-0.8368737212644687,0,0.0,1724164477.9570637,1687100439.1530678,0.08526059838997671,0.01425223760968562,-1.1697538108267,0.07902559253238725
1724164480.6616712,sensors/msg/DVLPosition,json_v3.1,std_msgs/msg/Header,,builtin_interfaces/msg/Time,660883903,1724164480,2.349584233521419,-0.5500210780903066,0,0.0,1724164477.9570637,1687100439.3716,0.10059157701545479,0.023341380836227568,-1.343814510164782,0.11397364637426984
1724164480.8691118,sensors/msg/DVLPosition,json_v3.1,std_msgs/msg/Header,,builtin_interfaces/msg/Time,867868423,1724164480,2.73661633059216,-0.3144887990280587,0,0.0,1724164477.9570637,1687100439.591562,0.12180156803794932,0.026911676813718963,-1.6090419631874173,0.14945034113074807
1724164481.0943327,sensors/msg/DVLPosition,json_v3.1,std_msgs/msg/Header,,builtin_interfaces/msg/Time,93265295,1724164481,2.9066903384299176,0.39839861600021087,0,0.0,1724164477.9570637,1687100439.80684,0.14426727593620578,0.026003186125387007,-2.211301783638186,0.18348544925585275
1724164481.328149,sensors/msg/DVLPosition,json_v3.1,std_msgs/msg/Header,,builtin_interfaces/msg/Time,326916933,1724164481,2.628706976887266,0.9219407921021987,0,0.0,1724164477.9570637,1687100440.0263119,0.17462552366409942,0.017991772873290814,-2.547809919014984,0.21569892830776846
1724164481.5265954,sensors/msg/DVLPosition,json_v3.1,std_msgs/msg/Header,,builtin_interfaces/msg/Time,525905609,1724164481,2.643001557605809,0.9315878375086255,0,0.0,1724164477.9570637,1687100440.24272,0.21104570000365788,0.010598696948598572,-2.696838039432208,0.24158130237700057
1724164481.7550437,sensors/msg/DVLPosition,json_v3.1,std_msgs/msg/Header,,builtin_interfaces/msg/Time,753302574,1724164481,2.92441175444479,0.8541641033398254,0,0.0,1724164477.9570637,1687100440.456718,0.25119608479777616,0.001502241063438363,-2.8020129902771647,0.2590742205305347
1724164481.9565222,sensors/msg/DVLPosition,json_v3.1,std_msgs/msg/Header,,builtin_interfaces/msg/Time,955807209,1724164481,3.1466349409804795,0.5472483573292302,0,0.0,1724164477.9570637,1687100440.676971,0.29321533871420696,-0.006391912270184032,-3.051976538242865,0.2683770723136898
1724164482.1826046,sensors/msg/DVLPosition,json_v3.1,std_msgs/msg/Header,,builtin_interfaces/msg/Time,182163238,1724164482,4.2858957136463385,0.1684304865128615,0,0.0,1724164477.9570637,1687100440.891862,0.33297237437314825,-0.008602142452270894,-3.483181541682987,0.27608161330372283
1724164482.4033117,sensors/msg/DVLPosition,json_v3.1,std_msgs/msg/Header,,builtin_interfaces/msg/Time,402833461,1724164482,4.637802820881768,-0.45945559346321324,0,0.0,1724164477.9570637,1687100441.108505,0.36709064958698157,-0.00805489551224309,-3.845216301003491,0.28181799262880414
1724164482.6300733,sensors/msg/DVLPosition,json_v3.1,std_msgs/msg/Header,,builtin_interfaces/msg/Time,629268884,1724164482,4.608456029357017,-1.004150838945591,0,0.0,1724164477.9570637,1687100441.328989,0.3992983476028017,-0.00626530585956128,-4.05098308693352,0.2896280876988376
1724164482.8351614,sensors/msg/DVLPosition,json_v3.1,std_msgs/msg/Header,,builtin_interfaces/msg/Time,834512948,1724164482,4.301747909503425,-1.4003201048553762,0,0.0,1724164477.9570637,1687100441.552826,0.4309390346793056,-0.005331229997594132,-4.137928248759943,0.2986453723895107
1724164483.0625412,sensors/msg/DVLPosition,json_v3.1,std_msgs/msg/Header,,builtin_interfaces/msg/Time,61939477,1724164483,3.9592122357763,-1.499815910213477,0,0.0,1724164477.9570637,1687100441.767197,0.4654648337434314,-0.0037213519605915034,-3.9401786318698813,0.3049491283508139
1724164483.2847733,sensors/msg/DVLPosition,json_v3.1,std_msgs/msg/Header,,builtin_interfaces/msg/Time,284311056,1724164483,3.495927215395583,-1.4269815762135238,0,0.0,1724164477.9570637,1687100441.9870698,0.5057407561562797,-0.0020601633577268744,-3.3305386330466824,0.30703157133164793
1724164483.4910388,sensors/msg/DVLPosition,json_v3.1,std_msgs/msg/Header,,builtin_interfaces/msg/Time,489760398,1724164483,2.8459788688417356,-1.2658800415072529,0,0.0,1724164477.9570637,1687100442.204015,0.5522118646687963,-0.00047135830292444015,-2.1536895320916867,0.2991368854270621
1724164483.7118328,sensors/msg/DVLPosition,json_v3.1,std_msgs/msg/Header,,builtin_interfaces/msg/Time,711168527,1724164483,2.1418014699836716,-1.4419722660529026,0,0.0,1724164477.9570637,1687100442.415881,0.6058642927454467,0.001840398160255038,-0.5693940253552199,0.28227737197109415
1724164483.9219809,sensors/msg/DVLPosition,json_v3.1,std_msgs/msg/Header,,builtin_interfaces/msg/Time,921604871,1724164483,1.6621450949334349,-1.8573608274438294,0,0.0,1724164477.9570637,1687100442.633602,0.6609324209752172,0.0021969320586916396,0.3109564043299972,0.2629132374784212
1724164484.1437087,sensors/msg/DVLPosition,json_v3.1,std_msgs/msg/Header,,builtin_interfaces/msg/Time,142790317,1724164484,1.6773189193776856,-2.3223902157186322,0,0.0,1724164477.9570637,1687100442.8481898,0.7134009276086897,4.174878015819139e-06,0.9241362434848303,0.24565863628483484
1724164484.353674,sensors/msg/DVLPosition,json_v3.1,std_msgs/msg/Header,,builtin_interfaces/msg/Time,352961063,1724164484,1.3298434480993473,-2.8878331274076534,0,0.0,1724164477.9570637,1687100443.070694,0.7615089266925571,0.002277061830666836,1.2137497734009242,0.2366924304618173
1724164484.5814672,sensors/msg/DVLPosition,json_v3.1,std_msgs/msg/Header,,builtin_interfaces/msg/Time,581134557,1724164484,2.081615298684109,-3.429685387075851,0,0.0,1724164477.9570637,1687100443.2872028,0.807730300879859,0.009342852410853694,1.159058497475795,0.2357120997552942
1724164484.799629,sensors/msg/DVLPosition,json_v3.1,std_msgs/msg/Header,,builtin_interfaces/msg/Time,798552751,1724164484,2.736289152404886,-3.6995749433467284,0,0.0,1724164477.9570637,1687100443.5111508,0.8494307964468854,0.016156698306846514,0.8157189475345904,0.23985197304306985
1724164485.0241513,sensors/msg/DVLPosition,json_v3.1,std_msgs/msg/Header,,builtin_interfaces/msg/Time,22955894,1724164485,2.855761465588008,-3.6996194391486297,0,0.0,1724164477.9570637,1687100443.728848,0.8895399837426856,0.026407453390072746,0.02810222079405615,0.24729283147218367
1724164485.2371492,sensors/msg/DVLPosition,json_v3.1,std_msgs/msg/Header,,builtin_interfaces/msg/Time,236382961,1724164485,3.895750245692978,-3.2177551649533713,0,0.0,1724164477.9570637,1687100443.947217,0.9329234501146514,0.037550244035678,-1.0018284760197864,0.25503587832999014
1724164485.4424565,sensors/msg/DVLPosition,json_v3.1,std_msgs/msg/Header,,builtin_interfaces/msg/Time,441584587,1724164485,5.199344043208469,-2.3162432340874424,0,0.0,1724164477.9570637,1687100444.1639469,0.9779878005853926,0.050864875787549016,-1.8686659126323422,0.2611479747818916
1724164485.661714,sensors/msg/DVLPosition,json_v3.1,std_msgs/msg/Header,,builtin_interfaces/msg/Time,660510063,1724164485,6.058913897773793,-1.2814619770808022,0,0.0,1724164477.9570637,1687100444.3772109,1.0238058179863656,0.06286803443330598,-2.34380382533971,0.2631607236419735
1724164485.873093,sensors/msg/DVLPosition,json_v3.1,std_msgs/msg/Header,,builtin_interfaces/msg/Time,872672796,1724164485,6.431110155163614,-0.4136462586999543,0,0.0,1724164477.9570637,1687100444.6027448,1.0704069783025398,0.068346493035487,-2.110357130142274,0.2545431487888155
1724164486.0919669,sensors/msg/DVLPosition,json_v3.1,std_msgs/msg/Header,,builtin_interfaces/msg/Time,91488838,1724164486,6.105644556068679,-0.2296373019307212,0,0.0,1724164477.9570637,1687100444.820078,1.1119550965233032,0.06622849109000538,-1.771590691859537,0.23704987440863842
1724164486.321027,sensors/msg/DVLPosition,json_v3.1,std_msgs/msg/Header,,builtin_interfaces/msg/Time,320444583,1724164486,5.016484783290625,-0.6193595130463173,0,0.0,1724164477.9570637,1687100445.035014,1.1490042038582884,0.06412795576537896,-1.6717091694964057,0.21681498233596921
1724164486.5428863,sensors/msg/DVLPosition,json_v3.1,std_msgs/msg/Header,,builtin_interfaces/msg/Time,541464567,1724164486,3.3419228686479197,-1.3404046287271811,0,0.0,1724164477.9570637,1687100445.247505,1.1865008942856847,0.06169911522723726,-1.6787212186582074,0.20027090192458152
1724164486.7457879,sensors/msg/DVLPosition,json_v3.1,std_msgs/msg/Header,,builtin_interfaces/msg/Time,744885444,1724164486,2.308551272954087,-1.780619867829388,0,0.0,1724164477.9570637,1687100445.466018,1.2272695858004377,0.05504345708988245,-1.8035826741195897,0.18829840255923835
1724164486.9693797,sensors/msg/DVLPosition,json_v3.1,std_msgs/msg/Header,,builtin_interfaces/msg/Time,968803644,1724164486,1.157907372405666,-2.30633941536864,0,0.0,1724164477.9570637,1687100445.687896,1.2674754328464815,0.04745074619250522,-2.0796379871625237,0.18327942502462055
1724164487.1832657,sensors/msg/DVLPosition,json_v3.1,std_msgs/msg/Header,,builtin_interfaces/msg/Time,182232141,1724164487,0.7146022467199297,-2.674303071869548,0,0.0,1724164477.9570637,1687100445.8992639,1.3073010281684132,0.04746402948950163,-2.36668878135873,0.18785279231933366
1724164487.4032707,sensors/msg/DVLPosition,json_v3.1,std_msgs/msg/Header,,builtin_interfaces/msg/Time,402642250,1724164487,1.57403139558332,-2.5508099371092765,0,0.0,1724164477.9570637,1687100446.1139429,1.3516747515026584,0.04624458665941707,-2.2550693904344064,0.20408906535493396
1724164487.6133947,sensors/msg/DVLPosition,json_v3.1,std_msgs/msg/Header,,builtin_interfaces/msg/Time,613079786,1724164487,2.5676009991042883,-1.8528686802482224,0,0.0,1724164477.9570637,1687100446.333572,1.399476079803861,0.05131880268652256,-2.045107703110622,0.2234795573146659
1724164487.832176,sensors/msg/DVLPosition,json_v3.1,std_msgs/msg/Header,,builtin_interfaces/msg/Time,831280231,1724164487,3.7185323285416856,-0.90636495704065,0,0.0,1724164477.9570637,1687100446.5520089,1.450874970507625,0.06042073682788395,-1.673351938549892,0.23332801419923044
1724164488.0618467,sensors/msg/DVLPosition,json_v3.1,std_msgs/msg/Header,,builtin_interfaces/msg/Time,60759782,1724164488,4.68109494490503,0.13734974975384925,0,0.0,1724164477.9570637,1687100446.7698328,1.5037249492056062,0.06589180533685454,-1.0928068492161063,0.23062735825021674
1724164488.2941961,sensors/msg/DVLPosition,json_v3.1,std_msgs/msg/Header,,builtin_interfaces/msg/Time,293157339,1724164488,4.841070125177575,0.6463398907617345,0,0.0,1724164477.9570637,1687100446.9876559,1.553167534959111,0.06536647741297093,-0.4753564985383298,0.2179217174322834
1724164488.5520954,sensors/msg/DVLPosition,json_v3.1,std_msgs/msg/Header,,builtin_interfaces/msg/Time,551552534,1724164488,4.430816900191497,0.4364237284633136,0,0.0,1724164477.9570637,1687100447.275797,1.618728572207663,0.06334280239079579,0.03531484555360756,0.20206733750668035
1724164488.7863965,sensors/msg/DVLPosition,json_v3.1,std_msgs/msg/Header,,builtin_interfaces/msg/Time,785987138,1724164488,3.824890847309385,-0.31810623654172465,0,0.0,1724164477.9570637,1687100447.502991,1.6574010803789492,0.05159924089281333,0.2332008523151831,0.18453702644375553
1724164489.0175536,sensors/msg/DVLPosition,json_v3.1,std_msgs/msg/Header,,builtin_interfaces/msg/Time,16368865,1724164489,4.684991801043241,-1.1450803144924568,0,0.0,1724164477.9570637,1687100447.720938,1.7034098230730161,0.045940283164470394,0.4294406923840711,0.17487778356530198
1724164489.213585,sensors/msg/DVLPosition,json_v3.1,std_msgs/msg/Header,,builtin_interfaces/msg/Time,213061571,1724164489,5.393554538428235,-1.942956199989239,0,0.0,1724164477.9570637,1687100447.933629,1.7477166579572077,0.049332767196222725,0.30382700706380383,0.17575306282342468
1724164489.4408689,sensors/msg/DVLPosition,json_v3.1,std_msgs/msg/Header,,builtin_interfaces/msg/Time,439741611,1724164489,5.591864643664138,-2.902024589371366,0,0.0,1724164477.9570637,1687100448.147929,1.7902426669080678,0.06082132391424599,-0.09047812779504665,0.18559420910323643
1724164489.6430175,sensors/msg/DVLPosition,json_v3.1,std_msgs/msg/Header,,builtin_interfaces/msg/Time,642200231,1724164489,5.706609328109083,-3.0916650773381122,0,0.0,1724164477.9570637,1687100448.3638868,1.8331505749804458,0.07563050758790538,-0.36862241758987424,0.19561503955094198
1724164489.8594782,sensors/msg/DVLPosition,json_v3.1,std_msgs/msg/Header,,builtin_interfaces/msg/Time,858637571,1724164489,6.078442337281148,-2.518221775869845,0,0.0,1724164477.9570637,1687100448.5809948,1.8736850700723915,0.08830680523865177,-0.6464780133521807,0.19923241746707268
1724164490.0898411,sensors/msg/DVLPosition,json_v3.1,std_msgs/msg/Header,,builtin_interfaces/msg/Time,88970661,1724164490,6.472766132598675,-1.7103823594452372,0,0.0,1724164477.9570637,1687100448.802376,1.9126923525765833,0.09029029594712493,-0.7195873527769063,0.19597555588916796
1724164490.3235407,sensors/msg/DVLPosition,json_v3.1,std_msgs/msg/Header,,builtin_interfaces/msg/Time,322969675,1724164490,6.462072235839206,-1.174193882203604,0,0.0,1724164477.9570637,1687100449.015787,1.9506547232818996,0.08770735219440173,-0.7287756960107632,0.19037621936556634
1724164490.52478,sensors/msg/DVLPosition,json_v3.1,std_msgs/msg/Header,,builtin_interfaces/msg/Time,523450136,1724164490,6.149581560484537,-1.2964054591798957,0,0.0,1724164477.9570637,1687100449.236099,1.9916700315124758,0.08042524823342286,-0.8256357535099139,0.18422953875916967
1724164490.7484086,sensors/msg/DVLPosition,json_v3.1,std_msgs/msg/Header,,builtin_interfaces/msg/Time,747831821,1724164490,5.679844167397408,-1.7515519157125248,0,0.0,1724164477.9570637,1687100449.451632,2.035947527450517,0.07544123127556406,-1.1408304391980495,0.18253632041014212
1724164490.9537683,sensors/msg/DVLPosition,json_v3.1,std_msgs/msg/Header,,builtin_interfaces/msg/Time,953253030,1724164490,5.365650722747533,-2.05482101296688,0,0.0,1724164477.9570637,1687100449.6702769,2.0806681630852966,0.07425182999572796,-1.337181147294488,0.18551311176866975
1724164491.1796474,sensors/msg/DVLPosition,json_v3.1,std_msgs/msg/Header,,builtin_interfaces/msg/Time,178659439,1724164491,5.18364860356275,-1.98933407661366,0,0.0,1724164477.9570637,1687100449.887416,2.1259365814509605,0.08171151302592337,-1.375542271966514,0.1937258872903421
1724164491.3948834,sensors/msg/DVLPosition,json_v3.1,std_msgs/msg/Header,,builtin_interfaces/msg/Time,394146442,1724164491,5.289476630947315,-1.556187172235754,0,0.0,1724164477.9570637,1687100450.104476,2.1697096793365467,0.09348724481920903,-1.1361069377614046,0.20352677235407782
1724164491.5975132,sensors/msg/DVLPosition,json_v3.1,std_msgs/msg/Header,,builtin_interfaces/msg/Time,596803665,1724164491,5.456680403458156,-1.1978983480441399,0,0.0,1724164477.9570637,1687100450.3249838,2.21137945934735,0.10588630724897116,-0.8921794027557619,0.21203180278736689
1724164491.820365,sensors/msg/DVLPosition,json_v3.1,std_msgs/msg/Header,,builtin_interfaces/msg/Time,819208621,1724164491,5.653886590153098,-0.7298694699045819,0,0.0,1724164477.9570637,1687100450.5324478,2.250833276161812,0.11120755904280974,-0.5104481514196175,0.2134523332144971
1724164492.0455155,sensors/msg/DVLPosition,json_v3.1,std_msgs/msg/Header,,builtin_interfaces/msg/Time,45113086,1724164492,5.955778441608671,-0.5460367312551965,0,0.0,1724164477.9570637,1687100450.746358,2.2896074953853347,0.1071207974199428,0.06696112956375296,0.21059486247698678
1724164492.2633312,sensors/msg/DVLPosition,json_v3.1,std_msgs/msg/Header,,builtin_interfaces/msg/Time,262548208,1724164492,5.958859179568447,-0.7462032555161461,0,0.0,1724164477.9570637,1687100450.971459,2.3323375934024426,0.10008375680204033,0.33339405529389926,0.20826765246309614
1724164492.4751189,sensors/msg/DVLPosition,json_v3.1,std_msgs/msg/Header,,builtin_interfaces/msg/Time,474456787,1724164492,5.83709142926883,-1.0346463629218015,0,0.0,1724164477.9570637,1687100451.194289,2.377057369297245,0.09193903329087365,-0.025329493267365288,0.20645081186661596
1724164492.702459,sensors/msg/DVLPosition,json_v3.1,std_msgs/msg/Header,,builtin_interfaces/msg/Time,701803922,1724164492,5.662037314955223,-1.2130936586738224,0,0.0,1724164477.9570637,1687100451.407219,2.424894752433704,0.08658754033635674,-0.7638514914878188,0.20651449982268705
1724164492.9030056,sensors/msg/DVLPosition,json_v3.1,std_msgs/msg/Header,,builtin_interfaces/msg/Time,902343988,1724164492,5.5768022698883275,-1.1779502853824233,0,0.0,1724164477.9570637,1687100451.6251018,2.4735531863663907,0.08439388145119185,-1.205457019457372,0.20919666027345624
1724164493.1251996,sensors/msg/DVLPosition,json_v3.1,std_msgs/msg/Header,,builtin_interfaces/msg/Time,124462366,1724164493,5.590376753015536,-0.8824584736794937,0,0.0,1724164477.9570637,1687100451.835171,2.517016792257838,0.08705488181530616,-1.2318605873341288,0.21290597560114113
1724164493.3473017,sensors/msg/DVLPosition,json_v3.1,std_msgs/msg/Header,,builtin_interfaces/msg/Time,346831560,1724164493,5.842780306063179,-0.06808643799929488,0,0.0,1724164477.9570637,1687100452.049726,2.561552100273296,0.0955542499083844,-0.8951900468702902,0.2160324365243583
1724164493.5660522,sensors/msg/DVLPosition,json_v3.1,std_msgs/msg/Header,,builtin_interfaces/msg/Time,565248012,1724164493,6.287698456980294,0.497800434061584,0,0.0,1724164477.9570637,1687100452.267048,2.606671079134706,0.10200719804002259,-0.5610210789761303,0.2146272518576627
1724164493.7695024,sensors/msg/DVLPosition,json_v3.1,std_msgs/msg/Header,,builtin_interfaces/msg/Time,768709421,1724164493,6.4042426197659434,0.7365643569810524,0,0.0,1724164477.9570637,1687100452.4830089,2.6509812893994265,0.10345233367141146,-0.22631485504998028,0.21017371299860815
1724164493.9943972,sensors/msg/DVLPosition,json_v3.1,std_msgs/msg/Header,,builtin_interfaces/msg/Time,993608713,1724164493,6.732589739813726,0.5461661685387427,0,0.0,1724164477.9570637,1687100452.7027519,2.6978258471920236,0.09873430003566296,-0.02884534268944812,0.20409309424853309
1724164494.2138042,sensors/msg/DVLPosition,json_v3.1,std_msgs/msg/Header,,builtin_interfaces/msg/Time,212445497,1724164494,7.56042597083587,0.1664650202773532,0,0.0,1724164477.9570637,1687100452.918568,2.742494666597867,0.08914274710399236,-0.01777618385786061,0.19559023978461507
1724164494.4124572,sensors/msg/DVLPosition,json_v3.1,std_msgs/msg/Header,,builtin_interfaces/msg/Time,411056280,1724164494,8.048675943799754,-0.2864565846848041,0,0.0,1724164477.9570637,1687100453.1271238,2.787776431515095,0.0817466333416453,0.027517861683650786,0.18885514022150252
1724164494.6299005,sensors/msg/DVLPosition,json_v3.1,std_msgs/msg/Header,,builtin_interfaces/msg/Time,629194259,1724164494,8.111721063268066,-0.7305425089158315,0,0.0,1724164477.9570637,1687100453.343711,2.8367416427549657,0.07906633363542792,0.3667947502416092,0.1825687858576025
1724164494.8505406,sensors/msg/DVLPosition,json_v3.1,std_msgs/msg/Header,,builtin_interfaces/msg/Time,849362134,1724164494,7.869430978198335,-1.2751374198136844,0,0.0,1724164477.9570637,1687100453.55419,2.8812579804906595,0.07750724884968443,1.1840877901847358,0.1773324850520036
1724164495.0713205,sensors/msg/DVLPosition,json_v3.1,std_msgs/msg/Header,,builtin_interfaces/msg/Time,70805072,1724164495,8.043493277544734,-1.6838821011773883,0,0.0,1724164477.9570637,1687100453.779347,2.9225591057223608,0.08109217140442486,2.061077812053247,0.1736695146284886
1724164495.2732975,sensors/msg/DVLPosition,json_v3.1,std_msgs/msg/Header,,builtin_interfaces/msg/Time,272232770,1724164495,8.455610558612095,-1.629344724340182,0,0.0,1724164477.9570637,1687100453.998539,2.9619006888745987,0.08740041593905412,2.5252634271515753,0.16910707989608123
1724164495.504111,sensors/msg/DVLPosition,json_v3.1,std_msgs/msg/Header,,builtin_interfaces/msg/Time,503203153,1724164495,8.498349011633705,-1.359554912581372,0,0.0,1724164477.9570637,1687100454.214041,3.000047616850438,0.09608781099308623,2.5482333371845804,0.16469829335165664
1724164495.7238321,sensors/msg/DVLPosition,json_v3.1,std_msgs/msg/Header,,builtin_interfaces/msg/Time,722745418,1724164495,8.126698204624875,-1.1693029588426505,0,0.0,1724164477.9570637,1687100454.432293,3.0426931031786104,0.10669752486618522,2.0657778509518496,0.16023184589840364
1724164495.9301083,sensors/msg/DVLPosition,json_v3.1,std_msgs/msg/Header,,builtin_interfaces/msg/Time,928784370,1724164495,7.687408114621489,-1.260732633351163,0,0.0,1724164477.9570637,1687100454.654446,3.0873535456094703,0.11787710026943192,1.1099500903934005,0.15738247480439072
1724164496.1623342,sensors/msg/DVLPosition,json_v3.1,std_msgs/msg/Header,,builtin_interfaces/msg/Time,161721706,1724164496,7.935022503975103,-1.3857747022072164,0,0.0,1724164477.9570637,1687100454.864179,3.130183060761561,0.12609704459587662,-0.5036356331791919,0.15343957009941375
1724164496.3659954,sensors/msg/DVLPosition,json_v3.1,std_msgs/msg/Header,,builtin_interfaces/msg/Time,364857912,1724164496,8.370048716964654,-1.1907341764484751,0,0.0,1724164477.9570637,1687100455.083976,3.1736536733290532,0.1286112641869341,-1.635477900795581,0.14732428019864838
1724164496.6056502,sensors/msg/DVLPosition,json_v3.1,std_msgs/msg/Header,,builtin_interfaces/msg/Time,604633092,1724164496,8.67677560130401,-1.0222978472265638,0,0.0,1724164477.9570637,1687100455.3011339,3.215809848557425,0.12882691296528612,-2.351477253388241,0.1437642107340906
1724164496.8173769,sensors/msg/DVLPosition,json_v3.1,std_msgs/msg/Header,,builtin_interfaces/msg/Time,816457748,1724164496,8.718039418869218,-0.9390151857962781,0,0.0,1724164477.9570637,1687100455.514576,3.258541497493393,0.1274051810516905,-2.3748116914773147,0.14059683417509866
1724164497.0139723,sensors/msg/DVLPosition,json_v3.1,std_msgs/msg/Header,,builtin_interfaces/msg/Time,12896060,1724164497,8.522990121591938,-1.0413502825157261,0,0.0,1724164477.9570637,1687100455.728721,3.301636620293062,0.1256021511710304,-2.0107274624205025,0.13839315819962694
1724164497.2265594,sensors/msg/DVLPosition,json_v3.1,std_msgs/msg/Header,,builtin_interfaces/msg/Time,225327014,1724164497,8.34283494434928,-1.0201480221390284,0,0.0,1724164477.9570637,1687100455.947104,3.3459238671020453,0.1261172822984587,-1.527885396908798,0.133008512968033
1724164497.4312503,sensors/msg/DVLPosition,json_v3.1,std_msgs/msg/Header,,builtin_interfaces/msg/Time,430779218,1724164497,8.44347412656096,-0.9449881970389451,0,0.0,1724164477.9570637,1687100456.1576278,3.388260939298114,0.1251257351528115,-0.8274342063392803,0.12630598287086903
1724164497.668545,sensors/msg/DVLPosition,json_v3.1,std_msgs/msg/Header,,builtin_interfaces/msg/Time,668143033,1724164497,8.789876117314728,-0.9009587763102637,0,0.0,1724164477.9570637,1687100456.3759608,3.4283621725344666,0.12542987173532022,-0.46006201886222386,0.1198732610644432
1724164497.8687022,sensors/msg/DVLPosition,json_v3.1,std_msgs/msg/Header,,builtin_interfaces/msg/Time,867539167,1724164497,8.708085821180244,-1.0294376755426606,0,0.0,1724164477.9570637,1687100456.586473,3.4617704541497973,0.12932061469777836,-0.6163555544436479,0.11522923986162673
1724164498.0698743,sensors/msg/DVLPosition,json_v3.1,std_msgs/msg/Header,,builtin_interfaces/msg/Time,68741083,1724164498,8.360298787705805,-1.4349263596085986,0,0.0,1724164477.9570637,1687100456.798148,3.4949637492355405,0.1364866003507094,-1.4797285789465848,0.11459389949030094
1724164498.2991533,sensors/msg/DVLPosition,json_v3.1,std_msgs/msg/Header,,builtin_interfaces/msg/Time,298863410,1724164498,8.49499158686265,-1.3141920032750936,0,0.0,1724164477.9570637,1687100457.008556,3.5263626680144418,0.13540474431706345,-1.7439483011009083,0.11402396491171574
1724164498.5768974,sensors/msg/DVLPosition,json_v3.1,std_msgs/msg/Header,,builtin_interfaces/msg/Time,575833559,1724164498,8.952492614287417,-0.4626090188374558,0,0.0,1724164477.9570637,1687100457.2912018,3.5695399548075084,0.1268798851364045,-1.3633917614936744,0.11471626715002685
1724164498.7830038,sensors/msg/DVLPosition,json_v3.1,std_msgs/msg/Header,,builtin_interfaces/msg/Time,782312154,1724164498,8.613881793200486,-0.051601568390604785,0,0.0,1724164477.9570637,1687100457.5119588,3.6239294618613647,0.12539532916138044,-0.8364508397513555,0.113333235540614
1724164499.0239615,sensors/msg/DVLPosition,json_v3.1,std_msgs/msg/Header,,builtin_interfaces/msg/Time,22636890,1724164499,7.624829603926373,0.20025839318624292,0,0.0,1724164477.9570637,1687100457.7297409,3.67672666831623,0.11889226853821237,-0.2734876306306907,0.11344430268698412
1724164499.263701,sensors/msg/DVLPosition,json_v3.1,std_msgs/msg/Header,,builtin_interfaces/msg/Time,262166976,1724164499,7.412486076859386,0.18838018123474076,0,0.0,1724164477.9570637,1687100457.9531748,3.7341810576968095,0.11627601272198929,0.01684149088616621,0.11297740588629551
1724164499.4676292,sensors/msg/DVLPosition,json_v3.1,std_msgs/msg/Header,,builtin_interfaces/msg/Time,466621398,1724164499,7.863088494051857,0.21699355424938288,0,0.0,1724164477.9570637,1687100458.174815,3.786437569312073,0.11433661633364028,0.46689771619055026,0.10889626745651125
1724164499.6836956,sensors/msg/DVLPosition,json_v3.1,std_msgs/msg/Header,,builtin_interfaces/msg/Time,683116912,1724164499,8.416274020156232,-0.002998751117969079,0,0.0,1724164477.9570637,1687100458.391403,3.8300433355760917,0.11329789478501318,1.3160612235159148,0.10399667270436516
1724164499.8910954,sensors/msg/DVLPosition,json_v3.1,std_msgs/msg/Header,,builtin_interfaces/msg/Time,890543222,1724164499,8.621689199572076,-0.4194379674251835,0,0.0,1724164477.9570637,1687100458.61183,3.8708855978990897,0.11867503598481609,1.8326056386986072,0.09973101822143221
1724164500.1234486,sensors/msg/DVLPosition,json_v3.1,std_msgs/msg/Header,,builtin_interfaces/msg/Time,123058080,1724164500,8.564572005177833,-0.8874246447094983,0,0.0,1724164477.9570637,1687100458.821126,3.90341345331348,0.12522331014950142,1.924133394254147,0.09529498122557956
1724164500.33122,sensors/msg/DVLPosition,json_v3.1,std_msgs/msg/Header,,builtin_interfaces/msg/Time,330731868,1724164500,8.525251333482105,-1.1912925410901922,0,0.0,1724164477.9570637,1687100459.041664,3.9407241860478637,0.13270458569954346,1.3210512355387805,0.08925587991372526
1724164500.5390851,sensors/msg/DVLPosition,json_v3.1,std_msgs/msg/Header,,builtin_interfaces/msg/Time,538177728,1724164500,8.331001238636324,-1.5552082250946015,0,0.0,1724164477.9570637,1687100459.261777,3.9793234402630144,0.13800880712025,-0.18405969455870677,0.0828486832769611
1724164500.7876148,sensors/msg/DVLPosition,json_v3.1,std_msgs/msg/Header,,builtin_interfaces/msg/Time,786511182,1724164500,8.034468211470417,-1.378193395853145,0,0.0,1724164477.9570637,1687100459.483331,4.01851331216749,0.14114423590551203,-1.5934887608581532,0.07712857236145906
1724164500.97005,sensors/msg/DVLPosition,json_v3.1,std_msgs/msg/Header,,builtin_interfaces/msg/Time,969022750,1724164500,7.874791381583403,-1.06089129218007,0,0.0,1724164477.9570637,1687100459.697705,4.061503960998027,0.13748989629658537,-1.849373756730916,0.07033732698185426
1724164501.2013261,sensors/msg/DVLPosition,json_v3.1,std_msgs/msg/Header,,builtin_interfaces/msg/Time,200404882,1724164501,8.182209298704407,-0.5675531431813612,0,0.0,1724164477.9570637,1687100459.90618,4.109425313799175,0.13555247972947188,-1.7840780720609648,0.0663439787124471
1724164501.4181361,sensors/msg/DVLPosition,json_v3.1,std_msgs/msg/Header,,builtin_interfaces/msg/Time,417444467,1724164501,8.682496035049715,-0.3052849607254519,0,0.0,1724164477.9570637,1687100460.12636,4.152250333855216,0.1318134685602939,-1.6931484609953897,0.06726627566425562
1724164501.6204832,sensors/msg/DVLPosition,json_v3.1,std_msgs/msg/Header,,builtin_interfaces/msg/Time,619936466,1724164501,9.17776871819145,-0.1846476558676288,0,0.0,1724164477.9570637,1687100460.3417468,4.196259424027319,0.13072863185885017,-1.4547238071986754,0.06614450457750516
1724164501.8545868,sensors/msg/DVLPosition,json_v3.1,std_msgs/msg/Header,,builtin_interfaces/msg/Time,854304552,1724164501,9.97585563481712,-0.04089372363563257,0,0.0,1724164477.9570637,1687100460.56215,4.242965762903664,0.13262262295135402,-0.7247435453014714,0.05750652201584508
1724164502.061064,sensors/msg/DVLPosition,json_v3.1,std_msgs/msg/Header,,builtin_interfaces/msg/Time,59789657,1724164502,10.820032337974558,0.1119042895435414,0,0.0,1724164477.9570637,1687100460.7817008,4.290116380474856,0.13974543353119762,0.30185085386954263,0.047621494382253014
1724164502.28611,sensors/msg/DVLPosition,json_v3.1,std_msgs/msg/Header,,builtin_interfaces/msg/Time,285151958,1724164502,11.180844320724818,-0.08902372936821085,0,0.0,1724164477.9570637,1687100460.999589,4.33079757114279,0.14465837453126482,1.217938047149859,0.03844242874901564
1724164502.502985,sensors/msg/DVLPosition,json_v3.1,std_msgs/msg/Header,,builtin_interfaces/msg/Time,502570390,1724164502,11.482188631367299,-0.6216695832717171,0,0.0,1724164477.9570637,1687100461.209455,4.368738329782281,0.1489001056881621,0.8333003988784747,0.028715202404607364
1724164502.7093463,sensors/msg/DVLPosition,json_v3.1,std_msgs/msg/Header,,builtin_interfaces/msg/Time,708025693,1724164502,11.843280313729023,-1.1970176690036185,0,0.0,1724164477.9570637,1687100461.419754,4.408987693036366,0.15200054986239256,-0.5852417844872141,0.015281843701174622
1724164502.9156573,sensors/msg/DVLPosition,json_v3.1,std_msgs/msg/Header,,builtin_interfaces/msg/Time,914969205,1724164502,12.109634373200825,-1.4745840057115223,0,0.0,1724164477.9570637,1687100461.6330888,4.449273729671596,0.14600969519744295,-2.5561757524255118,-0.003350893169913888
1724164503.143394,sensors/msg/DVLPosition,json_v3.1,std_msgs/msg/Header,,builtin_interfaces/msg/Time,142508506,1724164503,11.23728996571187,-1.443731697805523,0,0.0,1724164477.9570637,1687100461.8484929,4.493922240778301,0.13960801956476945,-2.4863510684937595,-0.014967727246751437
1724164503.3499303,sensors/msg/DVLPosition,json_v3.1,std_msgs/msg/Header,,builtin_interfaces/msg/Time,349465608,1724164503,10.933404569484315,-1.2073081831897128,0,0.0,1724164477.9570637,1687100462.068224,4.541805842764075,0.13384365448637645,-1.8621006959745645,-0.027034689069308476
1724164503.5718338,sensors/msg/DVLPosition,json_v3.1,std_msgs/msg/Header,,builtin_interfaces/msg/Time,570871829,1724164503,11.364994311564061,-0.816183482930906,0,0.0,1724164477.9570637,1687100462.2823708,4.591758774479203,0.13512064851419592,-1.3129474305369215,-0.036064756758239225
1724164503.7940354,sensors/msg/DVLPosition,json_v3.1,std_msgs/msg/Header,,builtin_interfaces/msg/Time,793276309,1724164503,11.747772489640951,-0.4936159801481331,0,0.0,1724164477.9570637,1687100462.505045,4.639577965044028,0.14030563873504553,-0.5633372722969852,-0.04207489538620199
1724164504.0166621,sensors/msg/DVLPosition,json_v3.1,std_msgs/msg/Header,,builtin_interfaces/msg/Time,15942811,1724164504,12.123913199308834,-0.39207187734344684,0,0.0,1724164477.9570637,1687100462.725869,4.676957268717718,0.14801126196921985,0.6046824662820832,-0.04813766293373522
1724164504.2246835,sensors/msg/DVLPosition,json_v3.1,std_msgs/msg/Header,,builtin_interfaces/msg/Time,223388671,1724164504,12.317909372760795,-0.23245034401157513,0,0.0,1724164477.9570637,1687100462.944993,4.71117088246657,0.15525023312964056,2.034767884640861,-0.0559944611649818
1724164504.4549787,sensors/msg/DVLPosition,json_v3.1,std_msgs/msg/Header,,builtin_interfaces/msg/Time,454472303,1724164504,12.74972250550754,-0.023920517737693388,0,0.0,1724164477.9570637,1687100463.1596448,4.745808541034496,0.15997912738626305,3.185989994623889,-0.06728021697489406
1724164504.6658194,sensors/msg/DVLPosition,json_v3.1,std_msgs/msg/Header,,builtin_interfaces/msg/Time,665289402,1724164504,13.114323185357746,-0.039387142749908705,0,0.0,1724164477.9570637,1687100463.3815649,4.784002159041313,0.16358243017674873,3.270792963427465,-0.07885475719561605
1724164504.8907359,sensors/msg/DVLPosition,json_v3.1,std_msgs/msg/Header,,builtin_interfaces/msg/Time,889878034,1724164504,13.120152121090728,-0.39672833652708245,0,0.0,1724164477.9570637,1687100463.601428,4.822578170775647,0.16467505197529173,2.4706729143740187,-0.09003880193668246
1724164505.1113894,sensors/msg/DVLPosition,json_v3.1,std_msgs/msg/Header,,builtin_interfaces/msg/Time,110278129,1724164505,12.947332514220642,-1.0804879197161317,0,0.0,1724164477.9570637,1687100463.817818,4.86128839212877,0.1677020175913256,0.7846913157837195,-0.10171770082909926
1724164505.325506,sensors/msg/DVLPosition,json_v3.1,std_msgs/msg/Header,,builtin_interfaces/msg/Time,324704170,1724164505,12.927368410396825,-1.4927083171939435,0,0.0,1724164477.9570637,1687100464.035411,4.905326136697691,0.17342733114427644,-0.8182755465654611,-0.11453842548322057
1724164505.5511115,sensors/msg/DVLPosition,json_v3.1,std_msgs/msg/Header,,builtin_interfaces/msg/Time,550101041,1724164505,13.049450946632419,-1.5543825502603485,0,0.0,1724164477.9570637,1687100464.25097,4.951500109636526,0.17658428926106504,-1.6390200268262227,-0.12565964365442042
1724164505.7525382,sensors/msg/DVLPosition,json_v3.1,std_msgs/msg/Header,,builtin_interfaces/msg/Time,751563072,1724164505,13.18911187512569,-1.2951441834070572,0,0.0,1724164477.9570637,1687100464.470404,4.99663844248195,0.17604885320558444,-1.8738395952065512,-0.13559291775377852
1724164505.9530518,sensors/msg/DVLPosition,json_v3.1,std_msgs/msg/Header,,builtin_interfaces/msg/Time,952559471,1724164505,13.364122140002282,-0.8771021023053567,0,0.0,1724164477.9570637,1687100464.6855,5.0397216997384895,0.17330717043999957,-2.0703211796539787,-0.14625771390998715
1724164506.1723695,sensors/msg/DVLPosition,json_v3.1,std_msgs/msg/Header,,builtin_interfaces/msg/Time,171752929,1724164506,13.518176553180822,-0.5877812047901819,0,0.0,1724164477.9570637,1687100464.897831,5.081721110087753,0.1680348675751104,-2.0124537647058944,-0.15760171801820405
1724164506.3914862,sensors/msg/DVLPosition,json_v3.1,std_msgs/msg/Header,,builtin_interfaces/msg/Time,391194581,1724164506,13.77150735682507,-0.6345874642669682,0,0.0,1724164477.9570637,1687100465.112031,5.1197474231428535,0.15906990616086328,-1.6188742952826405,-0.16774718796912744
1724164506.627792,sensors/msg/DVLPosition,json_v3.1,std_msgs/msg/Header,,builtin_interfaces/msg/Time,627237796,1724164506,14.878587690169267,-0.7339367268240359,0,0.0,1724164477.9570637,1687100465.3250709,5.165356002299978,0.15515100099689907,-0.8670419917670442,-0.17561636557929658
1724164506.8243654,sensors/msg/DVLPosition,json_v3.1,std_msgs/msg/Header,,builtin_interfaces/msg/Time,823707342,1724164506,15.577553432148457,-1.015058309479916,0,0.0,1724164477.9570637,1687100465.545681,5.212748635065828,0.15867952912975164,-0.4447965594656539,-0.1820478888594363
1724164507.055621,sensors/msg/DVLPosition,json_v3.1,std_msgs/msg/Header,,builtin_interfaces/msg/Time,55090665,1724164507,15.939743445207075,-1.2930469883215314,0,0.0,1724164477.9570637,1687100465.7644298,5.254119958932698,0.16429229292954978,-0.3169173999954137,-0.1903090127982365
1724164507.2726552,sensors/msg/DVLPosition,json_v3.1,std_msgs/msg/Header,,builtin_interfaces/msg/Time,272016048,1724164507,16.241357986649064,-1.5115748168812013,0,0.0,1724164477.9570637,1687100465.9789588,5.292116106431192,0.17276792025482837,-0.5315981949774705,-0.20229004332851944
1724164507.4679215,sensors/msg/DVLPosition,json_v3.1,std_msgs/msg/Header,,builtin_interfaces/msg/Time,467514038,1724164507,16.25761318260116,-1.588431236444395,0,0.0,1724164477.9570637,1687100466.19059,5.329655063684976,0.17639611926461354,-0.9862153458992694,-0.21536466116115516
1724164507.6935942,sensors/msg/DVLPosition,json_v3.1,std_msgs/msg/Header,,builtin_interfaces/msg/Time,692905902,1724164507,16.391873828151482,-1.7509857600835312,0,0.0,1724164477.9570637,1687100466.409138,5.364458181432624,0.17654639451463391,-1.6814892436678943,-0.22899258717829105
1724164507.9056103,sensors/msg/DVLPosition,json_v3.1,std_msgs/msg/Header,,builtin_interfaces/msg/Time,904623985,1724164507,16.21774325165281,-1.7290208397654017,0,0.0,1724164477.9570637,1687100466.625342,5.4018313552861965,0.17148672885706823,-2.045823854055493,-0.2415036583243028
1724164508.125746,sensors/msg/DVLPosition,json_v3.1,std_msgs/msg/Header,,builtin_interfaces/msg/Time,124976158,1724164508,15.89585886883787,-1.7524515014485051,0,0.0,1724164477.9570637,1687100466.8325648,5.440535176461594,0.1680043954458413,-2.0825082139921216,-0.2513037420054619
1724164508.3427513,sensors/msg/DVLPosition,json_v3.1,std_msgs/msg/Header,,builtin_interfaces/msg/Time,342114448,1724164508,15.559963672651882,-1.707140052987475,0,0.0,1724164477.9570637,1687100467.049444,5.4864107806542,0.16648304451500998,-1.8625913552704585,-0.25943760697030543
1724164508.6228213,sensors/msg/DVLPosition,json_v3.1,std_msgs/msg/Header,,builtin_interfaces/msg/Time,621601581,1724164508,15.259683114399735,-1.636075875684124,0,0.0,1724164477.9570637,1687100467.33104,5.547866952153469,0.17287924516369474,-1.6092431202513495,-0.2616967615491411
1724164508.823646,sensors/msg/DVLPosition,json_v3.1,std_msgs/msg/Header,,builtin_interfaces/msg/Time,823063850,1724164508,14.957258196375921,-1.759551926204178,0,0.0,1724164477.9570637,1687100467.550983,5.591134513748089,0.17930138869457424,-1.329656652124946,-0.26502787198697303
1724164509.0510244,sensors/msg/DVLPosition,json_v3.1,std_msgs/msg/Header,,builtin_interfaces/msg/Time,50454854,1724164509,14.904484251582547,-1.7958607029438083,0,0.0,1724164477.9570637,1687100467.7621539,5.625544823789355,0.18044635449325588,-0.9062068149560886,-0.2669975338022901
1724164509.2518907,sensors/msg/DVLPosition,json_v3.1,std_msgs/msg/Header,,builtin_interfaces/msg/Time,250919342,1724164509,15.104508879508824,-1.6698475095316117,0,0.0,1724164477.9570637,1687100467.978179,5.657825307543292,0.179382172623352,-0.7974880586568526,-0.2730386683261126
1724164509.4807925,sensors/msg/DVLPosition,json_v3.1,std_msgs/msg/Header,,builtin_interfaces/msg/Time,479844570,1724164509,15.087988705063026,-1.4631896497555927,0,0.0,1724164477.9570637,1687100468.1927638,5.695650677495685,0.18135586587595065,-0.8848433558370741,-0.28198523626949407
1724164509.7083678,sensors/msg/DVLPosition,json_v3.1,std_msgs/msg/Header,,builtin_interfaces/msg/Time,707789897,1724164509,14.814341010315486,-1.2653310328487646,0,0.0,1724164477.9570637,1687100468.420831,5.73971207791687,0.18017487063147808,-1.225241772354114,-0.2903471397726085
1724164509.9148495,sensors/msg/DVLPosition,json_v3.1,std_msgs/msg/Header,,builtin_interfaces/msg/Time,913739442,1724164509,14.40357063359473,-1.1152110677037934,0,0.0,1724164477.9570637,1687100468.632799,5.786327170844687,0.17947477759528643,-1.4542479203687904,-0.2955289389760803
1724164510.1422005,sensors/msg/DVLPosition,json_v3.1,std_msgs/msg/Header,,builtin_interfaces/msg/Time,141715049,1724164510,14.080331768523772,-0.9052616306512408,0,0.0,1724164477.9570637,1687100468.8510978,5.8322270743533355,0.17966570139588559,-1.7327385133825526,-0.30117554316276035
1724164510.3450208,sensors/msg/DVLPosition,json_v3.1,std_msgs/msg/Header,,builtin_interfaces/msg/Time,344207525,1724164510,13.757898475227265,-0.7019211935151279,0,0.0,1724164477.9570637,1687100469.0677938,5.878687611096804,0.1811904313187474,-1.818740871418578,-0.3071010338858134
1724164510.5679603,sensors/msg/DVLPosition,json_v3.1,std_msgs/msg/Header,,builtin_interfaces/msg/Time,567574739,1724164510,13.31971104084885,-0.5104045183693301,0,0.0,1724164477.9570637,1687100469.286257,5.923395107713601,0.18103316397435476,-1.6146547014284636,-0.3110636516640619
1724164510.7945366,sensors/msg/DVLPosition,json_v3.1,std_msgs/msg/Header,,builtin_interfaces/msg/Time,793970346,1724164510,13.166277210006989,-0.08992861941149612,0,0.0,1724164477.9570637,1687100469.50543,5.96854751025941,0.1818396101720765,-1.306052122695903,-0.31822926902517074
1724164511.002182,sensors/msg/DVLPosition,json_v3.1,std_msgs/msg/Header,,builtin_interfaces/msg/Time,942230,1724164511,13.243340405454346,-0.009181632267745045,0,0.0,1724164477.9570637,1687100469.725335,6.01499405786962,0.1801704359306643,-1.0233619373524825,-0.32499155581187505
1724164511.2278783,sensors/msg/DVLPosition,json_v3.1,std_msgs/msg/Header,,builtin_interfaces/msg/Time,226846218,1724164511,13.301746159162791,-0.2604045211272008,0,0.0,1724164477.9570637,1687100469.941989,6.057142935446672,0.17922775796314186,-0.7192647886093946,-0.3277592732341126
1724164511.4511714,sensors/msg/DVLPosition,json_v3.1,std_msgs/msg/Header,,builtin_interfaces/msg/Time,450297117,1724164511,13.162411546399793,-0.6003786029832561,0,0.0,1724164477.9570637,1687100470.154203,6.098150821913552,0.1842288905989771,-0.695755132693672,-0.32926263933190714
1724164511.6450868,sensors/msg/DVLPosition,json_v3.1,std_msgs/msg/Header,,builtin_interfaces/msg/Time,644339561,1724164511,13.285889702912542,-0.7061956225332195,0,0.0,1724164477.9570637,1687100470.365967,6.1400226222172485,0.1889276212435994,-1.0069069783917433,-0.32907784763974024
1724164511.8865051,sensors/msg/DVLPosition,json_v3.1,std_msgs/msg/Header,,builtin_interfaces/msg/Time,885315895,1724164511,13.549029756649361,-0.4767738121413266,0,0.0,1724164477.9570637,1687100470.585018,6.177881204841669,0.186446048504943,-1.497241351409748,-0.33119593562793403
1724164512.0978196,sensors/msg/DVLPosition,json_v3.1,std_msgs/msg/Header,,builtin_interfaces/msg/Time,96739292,1724164512,13.807350251954102,-0.06204981778676064,0,0.0,1724164477.9570637,1687100470.802502,6.217253942638066,0.18681022260015567,-1.3885216496829582,-0.3348964521295969
1724164512.3207343,sensors/msg/DVLPosition,json_v3.1,std_msgs/msg/Header,,builtin_interfaces/msg/Time,320178985,1724164512,14.076398242601554,0.16955826747324623,0,0.0,1724164477.9570637,1687100471.021477,6.262418968856939,0.1889303552826772,-1.127624671546982,-0.3457634449613303
1724164512.5289302,sensors/msg/DVLPosition,json_v3.1,std_msgs/msg/Header,,builtin_interfaces/msg/Time,527586698,1724164512,14.310110178803093,0.24966388525760957,0,0.0,1724164477.9570637,1687100471.2427158,6.310880759524237,0.18562449357308392,-0.9449243504427127,-0.360463625059926
1724164512.7426891,sensors/msg/DVLPosition,json_v3.1,std_msgs/msg/Header,,builtin_interfaces/msg/Time,741574764,1724164512,14.36468357587348,-0.1382349895232563,0,0.0,1724164477.9570637,1687100471.454522,6.354728273779963,0.1841174848165775,-0.8296312796162111,-0.372215436644648
1724164512.9485683,sensors/msg/DVLPosition,json_v3.1,std_msgs/msg/Header,,builtin_interfaces/msg/Time,947912693,1724164512,14.25682711233199,-0.5631103222286088,0,0.0,1724164477.9570637,1687100471.673184,6.393779939879254,0.1846003774107986,-0.7603806264126007,-0.38253808329347566
1724164513.167789,sensors/msg/DVLPosition,json_v3.1,std_msgs/msg/Header,,builtin_interfaces/msg/Time,166891098,1724164513,14.031441900039463,-0.922423750355871,0,0.0,1724164477.9570637,1687100471.888368,6.432971804338958,0.18516185205925118,-0.5764212581184074,-0.39195904034435924
1724164513.3957133,sensors/msg/DVLPosition,json_v3.1,std_msgs/msg/Header,,builtin_interfaces/msg/Time,395278692,1724164513,14.584967768548427,-1.0475806637219625,0,0.0,1724164477.9570637,1687100472.104521,6.477544156004266,0.18179860012406437,-0.5199226472787288,-0.40443199393472157
1724164513.6035178,sensors/msg/DVLPosition,json_v3.1,std_msgs/msg/Header,,builtin_interfaces/msg/Time,602537155,1724164513,15.137955842320443,-1.1587634410582455,0,0.0,1724164477.9570637,1687100472.324601,6.5247025156466405,0.18568558620082362,-0.4896015935816992,-0.41606566612601326
1724164513.822058,sensors/msg/DVLPosition,json_v3.1,std_msgs/msg/Header,,builtin_interfaces/msg/Time,821065902,1724164513,16.15373980043406,-1.1945041888625973,0,0.0,1724164477.9570637,1687100472.5440269,6.573306158090094,0.19274785311100626,-0.6022736030170595,-0.42539439827514375
1724164514.045511,sensors/msg/DVLPosition,json_v3.1,std_msgs/msg/Header,,builtin_interfaces/msg/Time,44516801,1724164514,17.349753042422776,-0.9134691861539687,0,0.0,1724164477.9570637,1687100472.765504,6.625811590221899,0.19957938584463952,-0.8198928731277962,-0.4405738499712876
1724164514.2628038,sensors/msg/DVLPosition,json_v3.1,std_msgs/msg/Header,,builtin_interfaces/msg/Time,261933803,1724164514,18.86547425807521,-0.4732650388049049,0,0.0,1724164477.9570637,1687100472.9811668,6.674362863597179,0.20074486107476375,-0.9030205346102352,-0.461103676208825
1724164514.46913,sensors/msg/DVLPosition,json_v3.1,std_msgs/msg/Header,,builtin_interfaces/msg/Time,468411684,1724164514,19.46283288787757,-0.344011467007613,0,0.0,1724164477.9570637,1687100473.193796,6.716128433443598,0.19656330146602444,-0.9052010503263278,-0.4838942318256358
1724164514.7008076,sensors/msg/DVLPosition,json_v3.1,std_msgs/msg/Header,,builtin_interfaces/msg/Time,700278759,1724164514,18.498494432193677,-0.5436014581232197,0,0.0,1724164477.9570637,1687100473.406337,6.747845933586827,0.19328999157326784,-0.46099304079724596,-0.503045857631503
1724164514.90041,sensors/msg/DVLPosition,json_v3.1,std_msgs/msg/Header,,builtin_interfaces/msg/Time,899029731,1724164514,18.098810798445758,-0.8727758492763055,0,0.0,1724164477.9570637,1687100473.6266289,6.774996049964505,0.19014446497381296,-0.0801715652010075,-0.5216481911626107
1724164515.1279805,sensors/msg/DVLPosition,json_v3.1,std_msgs/msg/Header,,builtin_interfaces/msg/Time,127414464,1724164515,17.889112227211022,-1.1389257232478633,0,0.0,1724164477.9570637,1687100473.840324,6.800403292196203,0.193350910309907,0.5230514130456386,-0.5346910100671577
1724164515.3444228,sensors/msg/DVLPosition,json_v3.1,std_msgs/msg/Header,,builtin_interfaces/msg/Time,343924045,1724164515,18.05185292096446,-1.487440430972764,0,0.0,1724164477.9570637,1687100474.051849,6.831198182411927,0.19942727500220475,1.4008920642191884,-0.5443403792435689
1724164515.5535781,sensors/msg/DVLPosition,json_v3.1,std_msgs/msg/Header,,builtin_interfaces/msg/Time,552369117,1724164515,18.541479974246457,-1.6026293842875456,0,0.0,1724164477.9570637,1687100474.266825,6.8677510725320445,0.20623980714651366,2.15777173174143,-0.5549220711855349
1724164515.7635422,sensors/msg/DVLPosition,json_v3.1,std_msgs/msg/Header,,builtin_interfaces/msg/Time,762804746,1724164515,19.329696809074132,-1.4165600433033916,0,0.0,1724164477.9570637,1687100474.483111,6.909834466180869,0.2118506913240017,2.565463150740245,-0.5703906857518823
1724164516.0081434,sensors/msg/DVLPosition,json_v3.1,std_msgs/msg/Header,,builtin_interfaces/msg/Time,7778406,1724164516,20.054940874169905,-0.9244256231729874,0,0.0,1724164477.9570637,1687100474.705884,6.953676625952431,0.21617751792358766,2.1419368059440185,-0.591421494839658
1724164516.2108595,sensors/msg/DVLPosition,json_v3.1,std_msgs/msg/Header,,builtin_interfaces/msg/Time,210268020,1724164516,20.54791782384004,-0.9452188439464695,0,0.0,1724164477.9570637,1687100474.927582,6.997562594245351,0.21869004749618878,1.1212241005463592,-0.6149124434417923
1724164516.4387298,sensors/msg/DVLPosition,json_v3.1,std_msgs/msg/Header,,builtin_interfaces/msg/Time,437834262,1724164516,20.806841443592816,-1.205089047085282,0,0.0,1724164477.9570637,1687100475.144589,7.037715157532306,0.2181339041682864,-0.33977088798500404,-0.6400976654576128
1724164516.636854,sensors/msg/DVLPosition,json_v3.1,std_msgs/msg/Header,,builtin_interfaces/msg/Time,636245965,1724164516,20.77980480992403,-1.2665352706562456,0,0.0,1724164477.9570637,1687100475.361992,7.076870684411884,0.21405539980557614,-1.3253030070820524,-0.6634151478857568
1724164516.8636923,sensors/msg/DVLPosition,json_v3.1,std_msgs/msg/Header,,builtin_interfaces/msg/Time,862670183,1724164516,20.738718988390765,-1.3110057290301729,0,0.0,1724164477.9570637,1687100475.575028,7.116219733989212,0.21231703395748178,-1.7735683400573976,-0.6842941030194916
1724164517.0710557,sensors/msg/DVLPosition,json_v3.1,std_msgs/msg/Header,,builtin_interfaces/msg/Time,70086479,1724164517,20.698679442441886,-1.3126689721054927,0,0.0,1724164477.9570637,1687100475.786551,7.1543483350580255,0.21229664709979612,-1.878576828197762,-0.7034947641699955
1724164517.29413,sensors/msg/DVLPosition,json_v3.1,std_msgs/msg/Header,,builtin_interfaces/msg/Time,293486595,1724164517,20.697597016324064,-1.3318834363932441,0,0.0,1724164477.9570637,1687100476.005132,7.192030179271426,0.21227046888930132,-1.8657058302175713,-0.7242625738839997
1724164517.5063708,sensors/msg/DVLPosition,json_v3.1,std_msgs/msg/Header,,builtin_interfaces/msg/Time,505918741,1724164517,20.64040744403143,-1.3653738641209123,0,0.0,1724164477.9570637,1687100476.221966,7.2280343480245035,0.20802025041005215,-1.834582503911613,-0.7441575603927081
1724164517.7103064,sensors/msg/DVLPosition,json_v3.1,std_msgs/msg/Header,,builtin_interfaces/msg/Time,709949970,1724164517,20.644928026933016,-1.4293023431714116,0,0.0,1724164477.9570637,1687100476.438844,7.2627501763666515,0.20074159996470614,-1.8100643133798207,-0.7638343511608554
1724164517.9205449,sensors/msg/DVLPosition,json_v3.1,std_msgs/msg/Header,,builtin_interfaces/msg/Time,919434070,1724164517,20.683296086414718,-1.5460096145597582,0,0.0,1724164477.9570637,1687100476.646082,7.296552690496109,0.19063193440261114,-1.8476988507186667,-0.7823642649016661
1724164518.1251805,sensors/msg/DVLPosition,json_v3.1,std_msgs/msg/Header,,builtin_interfaces/msg/Time,124125719,1724164518,20.582123549308633,-1.510703328749747,0,0.0,1724164477.9570637,1687100476.857272,7.331238644195012,0.18061499067158773,-1.948236752621732,-0.7993818058032751
1724164518.3529677,sensors/msg/DVLPosition,json_v3.1,std_msgs/msg/Header,,builtin_interfaces/msg/Time,351965188,1724164518,20.616808518338537,-1.2773495203194376,0,0.0,1724164477.9570637,1687100477.0665128,7.368791912715773,0.17824891470546853,-1.7943218222042954,-0.8139676594217485
1724164518.6391819,sensors/msg/DVLPosition,json_v3.1,std_msgs/msg/Header,,builtin_interfaces/msg/Time,638195753,1724164518,21.526107268144095,-0.13685377901966853,0,0.0,1724164477.9570637,1687100477.34635,7.417305044191876,0.16723054828017422,-1.4605388535170274,-0.8586152838828802
1724164518.8457541,sensors/msg/DVLPosition,json_v3.1,std_msgs/msg/Header,,builtin_interfaces/msg/Time,844688177,1724164518,22.164613772168472,0.6689095672044937,0,0.0,1724164477.9570637,1687100477.562949,7.453020794568086,0.1881665916380515,-1.252625948917857,-0.891811719771572
1724164519.0694032,sensors/msg/DVLPosition,json_v3.1,std_msgs/msg/Header,,builtin_interfaces/msg/Time,68048477,1724164519,22.546324573558753,1.445810476866342,0,0.0,1724164477.9570637,1687100477.7809758,7.484953071282431,0.19182159924687953,-0.7351891170601537,-0.9448732908074364
1724164519.2909381,sensors/msg/DVLPosition,json_v3.1,std_msgs/msg/Header,,builtin_interfaces/msg/Time,289959430,1724164519,22.474123351653542,1.4001893985383231,0,0.0,1724164477.9570637,1687100478.001154,7.511785178655943,0.19096170977045385,-0.26340132572017994,-0.9948853070157369
1724164519.482071,sensors/msg/DVLPosition,json_v3.1,std_msgs/msg/Header,,builtin_interfaces/msg/Time,481113195,1724164519,22.008511924846577,0.6180755839799282,0,0.0,1724164477.9570637,1687100478.214877,7.540055457998685,0.18522622398418848,0.028880270273207477,-1.0318717592107927
1724164519.72171,sensors/msg/DVLPosition,json_v3.1,std_msgs/msg/Header,,builtin_interfaces/msg/Time,720477581,1724164519,21.108529798133382,-0.9317500155179035,0,0.0,1724164477.9570637,1687100478.4241269,7.571559253891069,0.1784744966538248,0.2534299098766202,-1.0594306028975604
1724164519.9309378,sensors/msg/DVLPosition,json_v3.1,std_msgs/msg/Header,,builtin_interfaces/msg/Time,930511713,1724164519,21.228791920167556,-1.8607100159555723,0,0.0,1724164477.9570637,1687100478.647935,7.607138358247232,0.16802661385504875,0.13073322896233872,-1.0911415609898345
1724164520.1500797,sensors/msg/DVLPosition,json_v3.1,std_msgs/msg/Header,,builtin_interfaces/msg/Time,148866891,1724164520,22.09153344915791,-1.6224106467484154,0,0.0,1724164477.9570637,1687100478.8606598,7.641800367308456,0.15896872089928546,0.5530116938097661,-1.1333707140890077
1724164520.3516967,sensors/msg/DVLPosition,json_v3.1,std_msgs/msg/Header,,builtin_interfaces/msg/Time,351325750,1724164520,22.932721416775127,-0.20407584732102566,0,0.0,1724164477.9570637,1687100479.07051,7.672555840834577,0.15068590459638653,1.8380008951505478,-1.1839150508738874
1724164520.568966,sensors/msg/DVLPosition,json_v3.1,std_msgs/msg/Header,,builtin_interfaces/msg/Time,567763805,1724164520,23.152174465978554,1.4282303839164718,0,0.0,1724164477.9570637,1687100479.289916,7.70011056067446,0.1555917447011703,2.7400302554066442,-1.2392960312312138
1724164520.786254,sensors/msg/DVLPosition,json_v3.1,std_msgs/msg/Header,,builtin_interfaces/msg/Time,785180330,1724164520,22.98908828648314,2.144172294695739,0,0.0,1724164477.9570637,1687100479.500856,7.72117405371545,0.1668151083812168,2.713712990637073,-1.291432933995009
1724164520.993666,sensors/msg/DVLPosition,json_v3.1,std_msgs/msg/Header,,builtin_interfaces/msg/Time,992963552,1724164520,22.6463609507563,2.0656779737170687,0,0.0,1724164477.9570637,1687100479.712059,7.741574596802304,0.1813949424789936,2.17471154010469,-1.3395348531868627
1724164521.224721,sensors/msg/DVLPosition,json_v3.1,std_msgs/msg/Header,,builtin_interfaces/msg/Time,223558902,1724164521,22.237069631980518,1.2160934166224182,0,0.0,1724164477.9570637,1687100479.928453,7.76460016166965,0.19479339419811595,1.2699652318170003,-1.3842063365554718
1724164521.42871,sensors/msg/DVLPosition,json_v3.1,std_msgs/msg/Header,,builtin_interfaces/msg/Time,427760601,1724164521,22.422142471848954,0.08743430609660661,0,0.0,1724164477.9570637,1687100480.143482,7.790049151819695,0.2026642786978965,0.250595428678459,-1.425960363123209
1724164521.6481082,sensors/msg/DVLPosition,json_v3.1,std_msgs/msg/Header,,builtin_interfaces/msg/Time,646887779,1724164521,22.50599872669774,-1.6825744408632166,0,0.0,1724164477.9570637,1687100480.360911,7.81638125266458,0.206251700137103,-1.519600955519082,-1.4646917409401579
1724164521.8841991,sensors/msg/DVLPosition,json_v3.1,std_msgs/msg/Header,,builtin_interfaces/msg/Time,883523941,1724164521,22.56988928652796,-2.8454669045191454,0,0.0,1724164477.9570637,1687100480.5838208,7.847241022310138,0.20165006503868818,-2.267430249575505,-1.499841449946
1724164522.1004536,sensors/msg/DVLPosition,json_v3.1,std_msgs/msg/Header,,builtin_interfaces/msg/Time,99934101,1724164522,22.468325498392364,-3.1036355992312763,0,0.0,1724164477.9570637,1687100480.804996,7.876039874086945,0.1905113286336676,-2.244261142518549,-1.5304413893965236
1724164522.3144143,sensors/msg/DVLPosition,json_v3.1,std_msgs/msg/Header,,builtin_interfaces/msg/Time,313916444,1724164522,22.448214304430437,-3.0989350459090943,0,0.0,1724164477.9570637,1687100481.0247428,7.903604169958383,0.17522349901944836,-2.299636252866243,-1.5571534188852396
1724164522.5212257,sensors/msg/DVLPosition,json_v3.1,std_msgs/msg/Header,,builtin_interfaces/msg/Time,520331621,1724164522,22.516070531098958,-2.9299361857981356,0,0.0,1724164477.9570637,1687100481.2442908,7.9410514310359535,0.16595323390758926,-2.452016484468682,-1.5828627234504484
1724164522.7391648,sensors/msg/DVLPosition,json_v3.1,std_msgs/msg/Header,,builtin_interfaces/msg/Time,738744020,1724164522,22.73283382905458,-2.9282404022794255,0,0.0,1724164477.9570637,1687100481.4530408,7.9846423641808135,0.16567040904601596,-2.4370365776272007,-1.6043569627791008
1724164522.9591277,sensors/msg/DVLPosition,json_v3.1,std_msgs/msg/Header,,builtin_interfaces/msg/Time,958297491,1724164522,23.022148883640636,-2.682193801507241,0,0.0,1724164477.9570637,1687100481.6705098,8.034334809831398,0.17006456227069702,-1.955726555896313,-1.6264491748562468
1724164523.188125,sensors/msg/DVLPosition,json_v3.1,std_msgs/msg/Header,,builtin_interfaces/msg/Time,187203884,1724164523,23.265059332036774,-2.0689016794064456,0,0.0,1724164477.9570637,1687100481.90215,8.084765547737865,0.1790793861775334,-1.1611651386710762,-1.6544434972991025
1724164523.4089053,sensors/msg/DVLPosition,json_v3.1,std_msgs/msg/Header,,builtin_interfaces/msg/Time,408659219,1724164523,23.54804023041896,-1.3351193360278741,0,0.0,1724164477.9570637,1687100482.123432,8.123840705222726,0.18557283193176205,-0.45873697632667376,-1.6834972640533339
1724164523.6332922,sensors/msg/DVLPosition,json_v3.1,std_msgs/msg/Header,,builtin_interfaces/msg/Time,632803678,1724164523,23.562927250805302,-0.8033445987131361,0,0.0,1724164477.9570637,1687100482.343948,8.157323966374367,0.18968579620844672,-0.11489211595681055,-1.7122513363886056
1724164523.8344326,sensors/msg/DVLPosition,json_v3.1,std_msgs/msg/Header,,builtin_interfaces/msg/Time,833231687,1724164523,23.399091587473194,-0.9298548161264224,0,0.0,1724164477.9570637,1687100482.554924,8.186109238869875,0.19196125640096665,-0.3906644876639388,-1.736101935839757
1724164524.0633948,sensors/msg/DVLPosition,json_v3.1,std_msgs/msg/Header,,builtin_interfaces/msg/Time,62664270,1724164524,22.910098202390135,-1.8016558069886335,0,0.0,1724164477.9570637,1687100482.7699199,8.217646768231216,0.1891626909166357,-1.343734121806388,-1.7567072037881661
1724164524.2890916,sensors/msg/DVLPosition,json_v3.1,std_msgs/msg/Header,,builtin_interfaces/msg/Time,288015842,1724164524,22.223940317115883,-2.567641595139812,0,0.0,1724164477.9570637,1687100482.99035,8.252294089117038,0.18231976230395916,-2.541367232470467,-1.7726999346938677
1724164524.4958434,sensors/msg/DVLPosition,json_v3.1,std_msgs/msg/Header,,builtin_interfaces/msg/Time,495461225,1724164524,21.837272088172973,-2.6279969714326334,0,0.0,1724164477.9570637,1687100483.207351,8.288723956914538,0.17644089101736474,-3.3753294429139564,-1.783858011012383
1724164524.7128255,sensors/msg/DVLPosition,json_v3.1,std_msgs/msg/Header,,builtin_interfaces/msg/Time,711835861,1724164524,21.594832189148306,-2.1527341218162714,0,0.0,1724164477.9570637,1687100483.4272468,8.33227691417398,0.17611242988840958,-3.857885032675102,-1.789412727034737
1724164524.9161317,sensors/msg/DVLPosition,json_v3.1,std_msgs/msg/Header,,builtin_interfaces/msg/Time,915733337,1724164524,21.993982480674312,-1.5787840477619386,0,0.0,1724164477.9570637,1687100483.6354039,8.376712790171783,0.18146107733389064,-3.953474088994751,-1.793951791653912
1724164525.1392636,sensors/msg/DVLPosition,json_v3.1,std_msgs/msg/Header,,builtin_interfaces/msg/Time,138134479,1724164525,23.109666272923178,-0.8537454758818006,0,0.0,1724164477.9570637,1687100483.853916,8.42408737205018,0.1889235602651091,-3.810290402165511,-1.801178982268829
1724164525.3678002,sensors/msg/DVLPosition,json_v3.1,std_msgs/msg/Header,,builtin_interfaces/msg/Time,366523504,1724164525,24.621599927131168,-0.25692737956182604,0,0.0,1724164477.9570637,1687100484.071938,8.468534543368051,0.19615519392487776,-3.6905309716992485,-1.8139057463387063
1724164525.570347,sensors/msg/DVLPosition,json_v3.1,std_msgs/msg/Header,,builtin_interfaces/msg/Time,569980382,1724164525,26.50758036053658,0.17833652323470903,0,0.0,1724164477.9570637,1687100484.289326,8.510674997080072,0.19966480716624113,-3.2248522054083066,-1.83310465856141
