t,__msgtype__,altitude,header.__msgtype__,header.frame_id,header.stamp.__msgtype__,header.stamp.nanosec,header.stamp.sec,velocity.__msgtype__,velocity.x,velocity.y,velocity.z
1760946522.6162071,stonefish_ros2/msg/DVL,0.7656712462948855,std_msgs/msg/Header,vehicle/Nucleus_1000_DVL,builtin_interfaces/msg/Time,616166046,1760946522,geometry_msgs/msg/Vector3,-0.04720542647910542,-0.08090387355005824,-0.15766170634047255
1760946522.738635,stonefish_ros2/msg/DVL,0.7167624570719648,std_msgs/msg/Header,vehicle/Nucleus_1000_DVL,builtin_interfaces/msg/Time,738598043,1760946522,geometry_msgs/msg/Vector3,-0.023080418366986596,-0.07756676604322144,-0.17698669329841596
1760946522.864152,stonefish_ros2/msg/DVL,0.7139117089809505,std_msgs/msg/Header,vehicle/Nucleus_1000_DVL,builtin_interfaces/msg/Time,864115476,1760946522,geometry_msgs/msg/Vector3,-0.006801962430806191,-0.09836837061108501,-0.1675465089258461
1760946522.986396,stonefish_ros2/msg/DVL,0.6648866504228401,std_msgs/msg/Header,vehicle/Nucleus_1000_DVL,builtin_interfaces/msg/Time,986358065,1760946522,geometry_msgs/msg/Vector3,-0.0029205968442980288,-0.08560451378785325,-0.17036352086916562
1760946523.115068,stonefish_ros2/msg/DVL,0.6433887552225174,std_msgs/msg/Header,vehicle/Nucleus_1000_DVL,builtin_interfaces/msg/Time,115004223,1760946523,geometry_msgs/msg/Vector3,0.016275350448133743,-0.09856620660716958,-0.1604337680194349
1760946523.2370915,stonefish_ros2/msg/DVL,33.13363305340031,std_msgs/msg/Header,vehicle/Nucleus_1000_DVL,builtin_interfaces/msg/Time,237016055,1760946523,geometry_msgs/msg/Vector3,0.03203531220113904,-0.11638897359684146,-0.13038327958373008
1760946523.3660176,stonefish_ros2/msg/DVL,0.6211012780832356,std_msgs/msg/Header,vehicle/Nucleus_1000_DVL,builtin_interfaces/msg/Time,365967280,1760946523,geometry_msgs/msg/Vector3,0.024808417443400507,-0.15653447607475088,-0.15515709288022547
1760946523.4884567,stonefish_ros2/msg/DVL,32.47847236090513,std_msgs/msg/Header,vehicle/Nucleus_1000_DVL,builtin_interfaces/msg/Time,488409258,1760946523,geometry_msgs/msg/Vector3,0.03785158087211009,-0.15101558423995948,-0.1364041916389287
1760946523.614036,stonefish_ros2/msg/DVL,0.5956872898292598,std_msgs/msg/Header,vehicle/Nucleus_1000_DVL,builtin_interfaces/msg/Time,613954070,1760946523,geometry_msgs/msg/Vector3,0.03387435281858449,-0.15937411806523916,-0.12399258959008064
1760946523.7363513,stonefish_ros2/msg/DVL,0.5853335503428876,std_msgs/msg/Header,vehicle/Nucleus_1000_DVL,builtin_interfaces/msg/Time,736270948,1760946523,geometry_msgs/msg/Vector3,0.017317880410090906,-0.20102366902310678,-0.07634673320997162
1760946523.8652084,stonefish_ros2/msg/DVL,0.5579096577411429,std_msgs/msg/Header,vehicle/Nucleus_1000_DVL,builtin_interfaces/msg/Time,865155844,1760946523,geometry_msgs/msg/Vector3,0.028541652258932904,-0.21052983457039462,-0.07940755833990937
1760946523.9872317,stonefish_ros2/msg/DVL,0.573339516236454,std_msgs/msg/Header,vehicle/Nucleus_1000_DVL,builtin_interfaces/msg/Time,987193645,1760946523,geometry_msgs/msg/Vector3,0.02418057370289108,-0.19410212805914748,-0.046584185062631234
1760946524.1159494,stonefish_ros2/msg/DVL,0.5597770374901028,std_msgs/msg/Header,vehicle/Nucleus_1000_DVL,builtin_interfaces/msg/Time,115890053,1760946524,geometry_msgs/msg/Vector3,0.007557309358340191,-0.17465623876333536,-0.052049313443800996
1760946524.2380931,stonefish_ros2/msg/DVL,0.5764007018051133,std_msgs/msg/Header,vehicle/Nucleus_1000_DVL,builtin_interfaces/msg/Time,238056654,1760946524,geometry_msgs/msg/Vector3,-0.006368991434276839,-0.17834928805250125,-0.04664686621690454
1760946524.3639011,stonefish_ros2/msg/DVL,0.5483245578765388,std_msgs/msg/Header,vehicle/Nucleus_1000_DVL,builtin_interfaces/msg/Time,363857464,1760946524,geometry_msgs/msg/Vector3,-0.033113349583759506,-0.14819866882612057,-0.05120218868311165
1760946524.48945,stonefish_ros2/msg/DVL,0.5609388084471596,std_msgs/msg/Header,vehicle/Nucleus_1000_DVL,builtin_interfaces/msg/Time,489401747,1760946524,geometry_msgs/msg/Vector3,-0.011853014051272833,-0.15553130653837974,-0.03306472618611056
1760946524.6147728,stonefish_ros2/msg/DVL,0.5584543377641116,std_msgs/msg/Header,vehicle/Nucleus_1000_DVL,builtin_interfaces/msg/Time,614733922,1760946524,geometry_msgs/msg/Vector3,-0.041795501330394655,-0.13573686118454129,-0.060743616856659854
1760946524.7368755,stonefish_ros2/msg/DVL,0.538506489490514,std_msgs/msg/Header,vehicle/Nucleus_1000_DVL,builtin_interfaces/msg/Time,736826452,1760946524,geometry_msgs/msg/Vector3,-0.003467645840952143,-0.14116226492031347,-0.06766883594930562
1760946524.8656304,stonefish_ros2/msg/DVL,0.5641509371256965,std_msgs/msg/Header,vehicle/Nucleus_1000_DVL,builtin_interfaces/msg/Time,865553529,1760946524,geometry_msgs/msg/Vector3,-0.03308245564544171,-0.14020819713185612,-0.046622939275326965
1760946524.9877625,stonefish_ros2/msg/DVL,36.63843133788621,std_msgs/msg/Header,vehicle/Nucleus_1000_DVL,builtin_interfaces/msg/Time,987728509,1760946524,geometry_msgs/msg/Vector3,-0.01423015975966873,-0.15785667275942064,-0.052468402539907005
1760946525.1130285,stonefish_ros2/msg/DVL,0.5548822899635055,std_msgs/msg/Header,vehicle/Nucleus_1000_DVL,builtin_interfaces/msg/Time,112969626,1760946525,geometry_msgs/msg/Vector3,-0.008812582313718368,-0.15904572857353516,-0.04612706024332191
1760946525.2386425,stonefish_ros2/msg/DVL,0.5246804993649626,std_msgs/msg/Header,vehicle/Nucleus_1000_DVL,builtin_interfaces/msg/Time,238591408,1760946525,geometry_msgs/msg/Vector3,-0.01822275557792741,-0.16755003061882018,-0.006937136566105964
1760946525.3643754,stonefish_ros2/msg/DVL,37.23755070411116,std_msgs/msg/Header,vehicle/Nucleus_1000_DVL,builtin_interfaces/msg/Time,364315829,1760946525,geometry_msgs/msg/Vector3,-0.009007235675403463,-0.2019068736144102,0.0031782192183023366
1760946525.486717,stonefish_ros2/msg/DVL,0.5300029154756296,std_msgs/msg/Header,vehicle/Nucleus_1000_DVL,builtin_interfaces/msg/Time,486672177,1760946525,geometry_msgs/msg/Vector3,-0.02485392218013341,-0.20843122197106304,0.035929608384463296
1760946525.6156366,stonefish_ros2/msg/DVL,0.5195849464513226,std_msgs/msg/Header,vehicle/Nucleus_1000_DVL,builtin_interfaces/msg/Time,615593643,1760946525,geometry_msgs/msg/Vector3,-0.02448770685415269,-0.23825934089226417,0.04638718854032087
1760946525.7376854,stonefish_ros2/msg/DVL,0.5521951420519838,std_msgs/msg/Header,vehicle/Nucleus_1000_DVL,builtin_interfaces/msg/Time,737664004,1760946525,geometry_msgs/msg/Vector3,-0.023468125709234365,-0.24774313151152674,0.07802017796599586
1760946525.8630543,stonefish_ros2/msg/DVL,0.5593996810021069,std_msgs/msg/Header,vehicle/Nucleus_1000_DVL,builtin_interfaces/msg/Time,863002450,1760946525,geometry_msgs/msg/Vector3,-0.002561430320870182,-0.2651592183463023,0.07668549636285114
1760946525.9885056,stonefish_ros2/msg/DVL,0.5668642590486588,std_msgs/msg/Header,vehicle/Nucleus_1000_DVL,builtin_interfaces/msg/Time,988470564,1760946525,geometry_msgs/msg/Vector3,0.009088186560774465,-0.23695239841145208,0.08893999599098547
1760946526.114135,stonefish_ros2/msg/DVL,0.5760356533335268,std_msgs/msg/Header,vehicle/Nucleus_1000_DVL,builtin_interfaces/msg/Time,114082646,1760946526,geometry_msgs/msg/Vector3,0.0018328111792304505,-0.2616773573380915,0.07640950187350963
1760946526.2363834,stonefish_ros2/msg/DVL,0.6004760671719414,std_msgs/msg/Header,vehicle/Nucleus_1000_DVL,builtin_interfaces/msg/Time,236350186,1760946526,geometry_msgs/msg/Vector3,-0.0078120479448156675,-0.24376719198070376,0.04704579301557299
1760946526.3656585,stonefish_ros2/msg/DVL,40.79917017512207,std_msgs/msg/Header,vehicle/Nucleus_1000_DVL,builtin_interfaces/msg/Time,365604528,1760946526,geometry_msgs/msg/Vector3,-0.022094271734985398,-0.22402177459091138,0.00861362775944029
1760946526.4881167,stonefish_ros2/msg/DVL,41.72856522627939,std_msgs/msg/Header,vehicle/Nucleus_1000_DVL,builtin_interfaces/msg/Time,488085735,1760946526,geometry_msgs/msg/Vector3,-0.013294565367062113,-0.23620300340436393,0.018984450843346146
1760946526.6138003,stonefish_ros2/msg/DVL,0.6013166674213706,std_msgs/msg/Header,vehicle/Nucleus_1000_DVL,builtin_interfaces/msg/Time,613727578,1760946526,geometry_msgs/msg/Vector3,-0.011479710575974127,-0.21204934314731227,0.0020050462094585806
1760946526.736103,stonefish_ros2/msg/DVL,0.5853327496704767,std_msgs/msg/Header,vehicle/Nucleus_1000_DVL,builtin_interfaces/msg/Time,736055677,1760946526,geometry_msgs/msg/Vector3,-0.02980684862140272,-0.1988878243843826,-0.026925804751114134
1760946526.8652427,stonefish_ros2/msg/DVL,44.24619277195226,std_msgs/msg/Header,vehicle/Nucleus_1000_DVL,builtin_interfaces/msg/Time,865192540,1760946526,geometry_msgs/msg/Vector3,-0.030657352371675287,-0.19976020688118956,-0.04364672051228096
1760946526.9873276,stonefish_ros2/msg/DVL,44.52965372123258,std_msgs/msg/Header,vehicle/Nucleus_1000_DVL,builtin_interfaces/msg/Time,987306861,1760946526,geometry_msgs/msg/Vector3,-0.05012158480429703,-0.17255554564973563,-0.036539889038380194
1760946527.1128895,stonefish_ros2/msg/DVL,44.82413039610024,std_msgs/msg/Header,vehicle/Nucleus_1000_DVL,builtin_interfaces/msg/Time,112849704,1760946527,geometry_msgs/msg/Vector3,-0.04698027308451452,-0.18404314362744112,-0.0576121795607619
1760946527.2387676,stonefish_ros2/msg/DVL,0.5472800682616394,std_msgs/msg/Header,vehicle/Nucleus_1000_DVL,builtin_interfaces/msg/Time,238726625,1760946527,geometry_msgs/msg/Vector3,-0.05431704933278068,-0.2166629203326287,-0.048939883355720845
1760946527.3644023,stonefish_ros2/msg/DVL,0.5595461605451463,std_msgs/msg/Header,vehicle/Nucleus_1000_DVL,builtin_interfaces/msg/Time,364349907,1760946527,geometry_msgs/msg/Vector3,-0.05940294813110605,-0.22047317116913126,-0.05593803679960068
1760946527.4866335,stonefish_ros2/msg/DVL,0.5800281324393651,std_msgs/msg/Header,vehicle/Nucleus_1000_DVL,builtin_interfaces/msg/Time,486589397,1760946527,geometry_msgs/msg/Vector3,-0.0693247186177692,-0.23648152174322995,-0.04202885270000825
1760946527.6156583,stonefish_ros2/msg/DVL,0.5890392783177152,std_msgs/msg/Header,vehicle/Nucleus_1000_DVL,builtin_interfaces/msg/Time,615612732,1760946527,geometry_msgs/msg/Vector3,-0.05740590835492222,-0.22384111490170058,-0.02809050452900511
1760946527.7380333,stonefish_ros2/msg/DVL,0.5682157010236406,std_msgs/msg/Header,vehicle/Nucleus_1000_DVL,builtin_interfaces/msg/Time,738000290,1760946527,geometry_msgs/msg/Vector3,-0.023060107904485865,-0.2191012374873496,-0.006687316544426943
1760946527.8636692,stonefish_ros2/msg/DVL,36.75462014168576,std_msgs/msg/Header,vehicle/Nucleus_1000_DVL,builtin_interfaces/msg/Time,863611263,1760946527,geometry_msgs/msg/Vector3,-0.001466879290127815,-0.21951000854265976,0.02939672665723418
1760946527.9889886,stonefish_ros2/msg/DVL,0.5371002651083134,std_msgs/msg/Header,vehicle/Nucleus_1000_DVL,builtin_interfaces/msg/Time,988944609,1760946527,geometry_msgs/msg/Vector3,-0.019103690607242187,-0.21372901596687366,0.03203489741962024
1760946528.1143086,stonefish_ros2/msg/DVL,35.25937502194832,std_msgs/msg/Header,vehicle/Nucleus_1000_DVL,builtin_interfaces/msg/Time,114251255,1760946528,geometry_msgs/msg/Vector3,-0.01925887543476971,-0.16779185122459953,0.08165018881067865
1760946528.2366028,stonefish_ros2/msg/DVL,0.5839634441825415,std_msgs/msg/Header,vehicle/Nucleus_1000_DVL,builtin_interfaces/msg/Time,236551035,1760946528,geometry_msgs/msg/Vector3,0.010735045243722511,-0.17141440419470078,0.0654761261647619
1760946528.3655777,stonefish_ros2/msg/DVL,36.43721015383289,std_msgs/msg/Header,vehicle/Nucleus_1000_DVL,builtin_interfaces/msg/Time,365513431,1760946528,geometry_msgs/msg/Vector3,0.006772109725181015,-0.16887338321244388,0.08220449979352179
1760946528.4878879,stonefish_ros2/msg/DVL,0.5944017719243294,std_msgs/msg/Header,vehicle/Nucleus_1000_DVL,builtin_interfaces/msg/Time,487854430,1760946528,geometry_msgs/msg/Vector3,0.01266874264308751,-0.16948589252168764,0.05376118749974707
1760946528.613396,stonefish_ros2/msg/DVL,0.6102417331746102,std_msgs/msg/Header,vehicle/Nucleus_1000_DVL,builtin_interfaces/msg/Time,613339554,1760946528,geometry_msgs/msg/Vector3,0.008993826669011199,-0.19418675205797192,0.08100358543362593
1760946528.7387602,stonefish_ros2/msg/DVL,0.6206216990099436,std_msgs/msg/Header,vehicle/Nucleus_1000_DVL,builtin_interfaces/msg/Time,738729509,1760946528,geometry_msgs/msg/Vector3,0.0185277443337077,-0.18525901207242246,0.0441777849267643
1760946528.86437,stonefish_ros2/msg/DVL,0.615918276023028,std_msgs/msg/Header,vehicle/Nucleus_1000_DVL,builtin_interfaces/msg/Time,864292963,1760946528,geometry_msgs/msg/Vector3,0.021268301385537265,-0.17525456635369796,0.008306229330950012
1760946528.9865246,stonefish_ros2/msg/DVL,0.6299282666138888,std_msgs/msg/Header,vehicle/Nucleus_1000_DVL,builtin_interfaces/msg/Time,986490394,1760946528,geometry_msgs/msg/Vector3,0.008971962077003475,-0.17266972838365496,0.008318797915300123
1760946529.1153667,stonefish_ros2/msg/DVL,40.635904245765715,std_msgs/msg/Header,vehicle/Nucleus_1000_DVL,builtin_interfaces/msg/Time,115320432,1760946529,geometry_msgs/msg/Vector3,0.009397191747125416,-0.18632405184019823,-0.025757063228722517
1760946529.2372758,stonefish_ros2/msg/DVL,0.6204465955337372,std_msgs/msg/Header,vehicle/Nucleus_1000_DVL,builtin_interfaces/msg/Time,237249266,1760946529,geometry_msgs/msg/Vector3,0.005898924116308648,-0.1796995370798685,-0.03712302096493787
1760946529.3625603,stonefish_ros2/msg/DVL,0.6072474892377866,std_msgs/msg/Header,vehicle/Nucleus_1000_DVL,builtin_interfaces/msg/Time,362521043,1760946529,geometry_msgs/msg/Vector3,-0.03492659740154261,-0.21117043939544242,-0.07112025791813145
1760946529.4914694,stonefish_ros2/msg/DVL,0.6026726134828088,std_msgs/msg/Header,vehicle/Nucleus_1000_DVL,builtin_interfaces/msg/Time,491423239,1760946529,geometry_msgs/msg/Vector3,-0.01214417489189469,-0.23201168701474773,-0.1013582323348412
1760946529.6136832,stonefish_ros2/msg/DVL,0.607712689219444,std_msgs/msg/Header,vehicle/Nucleus_1000_DVL,builtin_interfaces/msg/Time,613614089,1760946529,geometry_msgs/msg/Vector3,-0.005497866662486053,-0.24688822882030376,-0.0974197201081685
1760946529.7392888,stonefish_ros2/msg/DVL,0.5858737391399268,std_msgs/msg/Header,vehicle/Nucleus_1000_DVL,builtin_interfaces/msg/Time,739242543,1760946529,geometry_msgs/msg/Vector3,-0.038567491643356794,-0.2088835885396952,-0.07074400719117757
1760946529.864888,stonefish_ros2/msg/DVL,37.532079718434716,std_msgs/msg/Header,vehicle/Nucleus_1000_DVL,builtin_interfaces/msg/Time,864836835,1760946529,geometry_msgs/msg/Vector3,-0.014728557339568092,-0.23252440580780023,-0.05326702022049769
1760946529.9906723,stonefish_ros2/msg/DVL,0.5699042827583892,std_msgs/msg/Header,vehicle/Nucleus_1000_DVL,builtin_interfaces/msg/Time,990634647,1760946529,geometry_msgs/msg/Vector3,-0.016784644425781065,-0.22636109026838008,-0.005585811938218465
1760946530.112797,stonefish_ros2/msg/DVL,0.5750203484452736,std_msgs/msg/Header,vehicle/Nucleus_1000_DVL,builtin_interfaces/msg/Time,112717190,1760946530,geometry_msgs/msg/Vector3,-0.006723525936920624,-0.23175263368334179,0.02048650020714647
1760946530.2417722,stonefish_ros2/msg/DVL,0.5713229425625508,std_msgs/msg/Header,vehicle/Nucleus_1000_DVL,builtin_interfaces/msg/Time,241739396,1760946530,geometry_msgs/msg/Vector3,-0.004352079746815276,-0.24617584814321913,0.024093178445472777
1760946530.3640406,stonefish_ros2/msg/DVL,0.5700084615262426,std_msgs/msg/Header,vehicle/Nucleus_1000_DVL,builtin_interfaces/msg/Time,363988667,1760946530,geometry_msgs/msg/Vector3,0.005515265858371917,-0.2131086114838218,0.03307870323804042
1760946530.489366,stonefish_ros2/msg/DVL,0.5719147338399034,std_msgs/msg/Header,vehicle/Nucleus_1000_DVL,builtin_interfaces/msg/Time,489340793,1760946530,geometry_msgs/msg/Vector3,0.002809716596631935,-0.23208317540816575,0.03916765566602634
1760946530.6148064,stonefish_ros2/msg/DVL,0.5810275293643059,std_msgs/msg/Header,vehicle/Nucleus_1000_DVL,builtin_interfaces/msg/Time,614772078,1760946530,geometry_msgs/msg/Vector3,0.0073705740426606315,-0.21282536918853184,0.039128463285834435
1760946530.740344,stonefish_ros2/msg/DVL,0.581646120541635,std_msgs/msg/Header,vehicle/Nucleus_1000_DVL,builtin_interfaces/msg/Time,740301123,1760946530,geometry_msgs/msg/Vector3,0.04244793554340029,-0.20798163874051512,0.038372917115173655
1760946530.8626964,stonefish_ros2/msg/DVL,0.604384973868221,std_msgs/msg/Header,vehicle/Nucleus_1000_DVL,builtin_interfaces/msg/Time,862669682,1760946530,geometry_msgs/msg/Vector3,0.022315962469204982,-0.22462388523087798,0.050192277996980214
1760946530.9917266,stonefish_ros2/msg/DVL,0.5929875850350823,std_msgs/msg/Header,vehicle/Nucleus_1000_DVL,builtin_interfaces/msg/Time,991662658,1760946530,geometry_msgs/msg/Vector3,0.007326223397435428,-0.19348121130126206,0.03265496234254647
1760946531.1141112,stonefish_ros2/msg/DVL,0.5927000866153826,std_msgs/msg/Header,vehicle/Nucleus_1000_DVL,builtin_interfaces/msg/Time,114043087,1760946531,geometry_msgs/msg/Vector3,-0.0007860636445686935,-0.20842199978318757,-0.010090455919335536
1760946531.239696,stonefish_ros2/msg/DVL,0.5917194984583783,std_msgs/msg/Header,vehicle/Nucleus_1000_DVL,builtin_interfaces/msg/Time,239661220,1760946531,geometry_msgs/msg/Vector3,-0.031479160152607696,-0.1890608463706559,-0.019794433626001917
1760946531.365095,stonefish_ros2/msg/DVL,0.5976330413247626,std_msgs/msg/Header,vehicle/Nucleus_1000_DVL,builtin_interfaces/msg/Time,365039137,1760946531,geometry_msgs/msg/Vector3,-0.04695463894722474,-0.20663999387560555,-0.0675798879577769
1760946531.4905856,stonefish_ros2/msg/DVL,0.5809521005472968,std_msgs/msg/Header,vehicle/Nucleus_1000_DVL,builtin_interfaces/msg/Time,490547161,1760946531,geometry_msgs/msg/Vector3,-0.06279767807153291,-0.20209443240303251,-0.08331591990038917
1760946531.6124163,stonefish_ros2/msg/DVL,0.5473163762620018,std_msgs/msg/Header,vehicle/Nucleus_1000_DVL,builtin_interfaces/msg/Time,612380867,1760946531,geometry_msgs/msg/Vector3,-0.0686716175709263,-0.19704952479215285,-0.0676553687077276
1760946531.7412531,stonefish_ros2/msg/DVL,0.5759844080431711,std_msgs/msg/Header,vehicle/Nucleus_1000_DVL,builtin_interfaces/msg/Time,741231154,1760946531,geometry_msgs/msg/Vector3,-0.06778031309021217,-0.18919634425208465,-0.057969313717232476
1760946531.8632832,stonefish_ros2/msg/DVL,0.5727320455591774,std_msgs/msg/Header,vehicle/Nucleus_1000_DVL,builtin_interfaces/msg/Time,863252307,1760946531,geometry_msgs/msg/Vector3,-0.043333006000952703,-0.18262921551209227,-0.023679157044061233
1760946531.9921067,stonefish_ros2/msg/DVL,0.5700059543135518,std_msgs/msg/Header,vehicle/Nucleus_1000_DVL,builtin_interfaces/msg/Time,992068955,1760946531,geometry_msgs/msg/Vector3,-0.016350762411778942,-0.18620881692523106,-0.025927793342853302
1760946532.1141253,stonefish_ros2/msg/DVL,0.561614788921795,std_msgs/msg/Header,vehicle/Nucleus_1000_DVL,builtin_interfaces/msg/Time,114073409,1760946532,geometry_msgs/msg/Vector3,-0.011273765455649757,-0.16974431843256652,-0.01443685563505759
1760946532.2394373,stonefish_ros2/msg/DVL,0.5687315452567109,std_msgs/msg/Header,vehicle/Nucleus_1000_DVL,builtin_interfaces/msg/Time,239401965,1760946532,geometry_msgs/msg/Vector3,0.013215667352541373,-0.1794382130913546,-0.0036964846935588474
1760946532.3647668,stonefish_ros2/msg/DVL,0.5661598208624854,std_msgs/msg/Header,vehicle/Nucleus_1000_DVL,builtin_interfaces/msg/Time,364742072,1760946532,geometry_msgs/msg/Vector3,0.02288375862902499,-0.16457806128307098,0.01166891009116914
1760946532.4902415,stonefish_ros2/msg/DVL,0.563349472982153,std_msgs/msg/Header,vehicle/Nucleus_1000_DVL,builtin_interfaces/msg/Time,490158917,1760946532,geometry_msgs/msg/Vector3,0.05026284703266558,-0.1854363250603423,0.011470194374685888
1760946532.6123056,stonefish_ros2/msg/DVL,0.5813611238068013,std_msgs/msg/Header,vehicle/Nucleus_1000_DVL,builtin_interfaces/msg/Time,612273380,1760946532,geometry_msgs/msg/Vector3,0.023184636949116315,-0.1927620799179365,-0.010525585703281376
1760946532.7410722,stonefish_ros2/msg/DVL,39.13342618755031,std_msgs/msg/Header,vehicle/Nucleus_1000_DVL,builtin_interfaces/msg/Time,741045298,1760946532,geometry_msgs/msg/Vector3,0.01749457255260033,-0.2163333609479542,-0.027961549212823206
1760946532.8630722,stonefish_ros2/msg/DVL,39.6943945418767,std_msgs/msg/Header,vehicle/Nucleus_1000_DVL,builtin_interfaces/msg/Time,863039122,1760946532,geometry_msgs/msg/Vector3,-0.002425700870275916,-0.21348139501117033,-0.03940024623954751
1760946532.9919274,stonefish_ros2/msg/DVL,39.92313969330563,std_msgs/msg/Header,vehicle/Nucleus_1000_DVL,builtin_interfaces/msg/Time,991894780,1760946532,geometry_msgs/msg/Vector3,-0.01691458023201688,-0.18871061587462312,-0.040836732264776916
1760946533.1140034,stonefish_ros2/msg/DVL,0.5438000738946341,std_msgs/msg/Header,vehicle/Nucleus_1000_DVL,builtin_interfaces/msg/Time,113972824,1760946533,geometry_msgs/msg/Vector3,-0.030693999270754693,-0.19957365714174147,-0.050855180184919545
1760946533.2394686,stonefish_ros2/msg/DVL,0.5573396755786951,std_msgs/msg/Header,vehicle/Nucleus_1000_DVL,builtin_interfaces/msg/Time,239439569,1760946533,geometry_msgs/msg/Vector3,-0.04966083877769557,-0.21328300395805164,-0.05156567315141805
1760946533.364869,stonefish_ros2/msg/DVL,39.63971768141591,std_msgs/msg/Header,vehicle/Nucleus_1000_DVL,builtin_interfaces/msg/Time,364800916,1760946533,geometry_msgs/msg/Vector3,-0.061647314080730965,-0.2045900297504631,-0.06517759989258531
1760946533.4902148,stonefish_ros2/msg/DVL,38.97845999650216,std_msgs/msg/Header,vehicle/Nucleus_1000_DVL,builtin_interfaces/msg/Time,490186742,1760946533,geometry_msgs/msg/Vector3,-0.05675931986558023,-0.2050202340182257,-0.06606200783671642
1760946533.6122503,stonefish_ros2/msg/DVL,38.39596395983376,std_msgs/msg/Header,vehicle/Nucleus_1000_DVL,builtin_interfaces/msg/Time,612197367,1760946533,geometry_msgs/msg/Vector3,-0.05010738650480536,-0.2012612817699698,-0.055210972644655514
1760946533.7410705,stonefish_ros2/msg/DVL,37.81383316703928,std_msgs/msg/Header,vehicle/Nucleus_1000_DVL,builtin_interfaces/msg/Time,741024125,1760946533,geometry_msgs/msg/Vector3,-0.037966773719915185,-0.1795258230706076,-0.04573897368092219
1760946533.8629591,stonefish_ros2/msg/DVL,0.5319983316386382,std_msgs/msg/Header,vehicle/Nucleus_1000_DVL,builtin_interfaces/msg/Time,862907281,1760946533,geometry_msgs/msg/Vector3,-0.009875865450805366,-0.1711043132998056,-0.024204312481904813
1760946533.98872,stonefish_ros2/msg/DVL,0.5476531480490748,std_msgs/msg/Header,vehicle/Nucleus_1000_DVL,builtin_interfaces/msg/Time,988695812,1760946533,geometry_msgs/msg/Vector3,0.011441398834880928,-0.1878936089384383,-0.009563462540183944
1760946534.1141462,stonefish_ros2/msg/DVL,0.5212320571394581,std_msgs/msg/Header,vehicle/Nucleus_1000_DVL,builtin_interfaces/msg/Time,114102969,1760946534,geometry_msgs/msg/Vector3,0.04121054241247811,-0.1782011701253049,9.773289056863718e-05
1760946534.2398746,stonefish_ros2/msg/DVL,37.14853698623528,std_msgs/msg/Header,vehicle/Nucleus_1000_DVL,builtin_interfaces/msg/Time,239827693,1760946534,geometry_msgs/msg/Vector3,0.02392197094173689,-0.18079394796393136,-0.004810450521571767
1760946534.3652425,stonefish_ros2/msg/DVL,37.413386299384634,std_msgs/msg/Header,vehicle/Nucleus_1000_DVL,builtin_interfaces/msg/Time,365171860,1760946534,geometry_msgs/msg/Vector3,0.04665163195171461,-0.2055703816984107,0.010005682217510132
1760946534.4910672,stonefish_ros2/msg/DVL,37.699791763981736,std_msgs/msg/Header,vehicle/Nucleus_1000_DVL,builtin_interfaces/msg/Time,491042402,1760946534,geometry_msgs/msg/Vector3,0.04692129883140824,-0.23185263911314385,-0.02975981872477862
1760946534.613299,stonefish_ros2/msg/DVL,0.5357378649795548,std_msgs/msg/Header,vehicle/Nucleus_1000_DVL,builtin_interfaces/msg/Time,613228614,1760946534,geometry_msgs/msg/Vector3,0.04383554499701471,-0.23271017730045226,-0.028479568120301238
1760946534.7390287,stonefish_ros2/msg/DVL,0.5099596728769478,std_msgs/msg/Header,vehicle/Nucleus_1000_DVL,builtin_interfaces/msg/Time,738961247,1760946534,geometry_msgs/msg/Vector3,0.039199044929438716,-0.21638250102660922,-0.027690440972209154
1760946534.8647578,stonefish_ros2/msg/DVL,37.66581894716055,std_msgs/msg/Header,vehicle/Nucleus_1000_DVL,builtin_interfaces/msg/Time,864715370,1760946534,geometry_msgs/msg/Vector3,-0.010649448445599617,-0.23383521302809748,-0.040593684714835564
1760946534.9904227,stonefish_ros2/msg/DVL,37.426535506527486,std_msgs/msg/Header,vehicle/Nucleus_1000_DVL,builtin_interfaces/msg/Time,990378444,1760946534,geometry_msgs/msg/Vector3,0.006093883678074033,-0.19846473443837226,-0.030326347103916476
1760946535.1127598,stonefish_ros2/msg/DVL,0.5090765326652001,std_msgs/msg/Header,vehicle/Nucleus_1000_DVL,builtin_interfaces/msg/Time,112723865,1760946535,geometry_msgs/msg/Vector3,-0.01142919891468308,-0.19867502429992068,-0.035141581505364144
1760946535.2384913,stonefish_ros2/msg/DVL,0.522713123801231,std_msgs/msg/Header,vehicle/Nucleus_1000_DVL,builtin_interfaces/msg/Time,238444538,1760946535,geometry_msgs/msg/Vector3,-0.032391772979150864,-0.20412302488764036,-0.022097337413272265
1760946535.3640974,stonefish_ros2/msg/DVL,0.5010475813473471,std_msgs/msg/Header,vehicle/Nucleus_1000_DVL,builtin_interfaces/msg/Time,364050343,1760946535,geometry_msgs/msg/Vector3,-0.03350219562366913,-0.20149894625396986,-0.02620355753262498
1760946535.4898744,stonefish_ros2/msg/DVL,0.50466874050976,std_msgs/msg/Header,vehicle/Nucleus_1000_DVL,builtin_interfaces/msg/Time,489841425,1760946535,geometry_msgs/msg/Vector3,-0.02203793683953316,-0.21947123932147936,-0.029459471886841768
1760946535.612275,stonefish_ros2/msg/DVL,0.475580046577932,std_msgs/msg/Header,vehicle/Nucleus_1000_DVL,builtin_interfaces/msg/Time,612201086,1760946535,geometry_msgs/msg/Vector3,-0.016072069788274575,-0.20887923746024106,-0.026200067321468443
1760946535.7413738,stonefish_ros2/msg/DVL,0.4622543854918383,std_msgs/msg/Header,vehicle/Nucleus_1000_DVL,builtin_interfaces/msg/Time,741328042,1760946535,geometry_msgs/msg/Vector3,-0.005207333988345429,-0.20624478375100994,-0.016996176700502297
1760946535.863794,stonefish_ros2/msg/DVL,0.5006572691191582,std_msgs/msg/Header,vehicle/Nucleus_1000_DVL,builtin_interfaces/msg/Time,863743542,1760946535,geometry_msgs/msg/Vector3,0.01887951671230663,-0.2136654084010285,-0.009207596052441713
1760946535.9897008,stonefish_ros2/msg/DVL,0.501257445427986,std_msgs/msg/Header,vehicle/Nucleus_1000_DVL,builtin_interfaces/msg/Time,989648844,1760946535,geometry_msgs/msg/Vector3,0.02599969192567989,-0.2244533477331247,-0.009186535707625513
1760946536.112083,stonefish_ros2/msg/DVL,34.26126838675341,std_msgs/msg/Header,vehicle/Nucleus_1000_DVL,builtin_interfaces/msg/Time,112040975,1760946536,geometry_msgs/msg/Vector3,0.025515556266797645,-0.2142033232298347,0.020639080533982425
1760946536.2413137,stonefish_ros2/msg/DVL,0.5124389346313339,std_msgs/msg/Header,vehicle/Nucleus_1000_DVL,builtin_interfaces/msg/Time,241250669,1760946536,geometry_msgs/msg/Vector3,0.032980815765492257,-0.2113893688051975,0.02060993457115215
1760946536.363676,stonefish_ros2/msg/DVL,0.5057937654089409,std_msgs/msg/Header,vehicle/Nucleus_1000_DVL,builtin_interfaces/msg/Time,363622100,1760946536,geometry_msgs/msg/Vector3,0.031312717247039504,-0.23374024055359882,0.008929276728083958
1760946536.4895518,stonefish_ros2/msg/DVL,0.48881165728721776,std_msgs/msg/Header,vehicle/Nucleus_1000_DVL,builtin_interfaces/msg/Time,489496552,1760946536,geometry_msgs/msg/Vector3,0.021622962976594592,-0.2122567167549182,-0.010219396656585413
1760946536.6118004,stonefish_ros2/msg/DVL,0.49945739355502294,std_msgs/msg/Header,vehicle/Nucleus_1000_DVL,builtin_interfaces/msg/Time,611747444,1760946536,geometry_msgs/msg/Vector3,0.013632037552760703,-0.23717140024633102,0.004398215311156558
1760946536.740919,stonefish_ros2/msg/DVL,0.4796130434789942,std_msgs/msg/Header,vehicle/Nucleus_1000_DVL,builtin_interfaces/msg/Time,740891799,1760946536,geometry_msgs/msg/Vector3,-0.0014577378021378533,-0.2182386979652585,-0.013776192463378845
1760946536.8633254,stonefish_ros2/msg/DVL,0.48653128577311366,std_msgs/msg/Header,vehicle/Nucleus_1000_DVL,builtin_interfaces/msg/Time,863284741,1760946536,geometry_msgs/msg/Vector3,-0.0029819831129745127,-0.21687700076149985,-0.0015776207221323722
1760946536.989215,stonefish_ros2/msg/DVL,0.49980542628480573,std_msgs/msg/Header,vehicle/Nucleus_1000_DVL,builtin_interfaces/msg/Time,989181462,1760946536,geometry_msgs/msg/Vector3,-0.010479307452678513,-0.1957767825984937,-0.0002945044112839419
1760946537.1145124,stonefish_ros2/msg/DVL,38.306738182562846,std_msgs/msg/Header,vehicle/Nucleus_1000_DVL,builtin_interfaces/msg/Time,114441351,1760946537,geometry_msgs/msg/Vector3,-0.014401452810437181,-0.20274673345739316,-0.010849286659232462
1760946537.2401292,stonefish_ros2/msg/DVL,0.5070776515784678,std_msgs/msg/Header,vehicle/Nucleus_1000_DVL,builtin_interfaces/msg/Time,240091836,1760946537,geometry_msgs/msg/Vector3,-0.009823585379573466,-0.2031812300539343,-0.013831081811123537
1760946537.3626134,stonefish_ros2/msg/DVL,0.48401547686782137,std_msgs/msg/Header,vehicle/Nucleus_1000_DVL,builtin_interfaces/msg/Time,362543076,1760946537,geometry_msgs/msg/Vector3,-0.028491480180323093,-0.15102116149046024,-0.014481116394690232
1760946537.4884605,stonefish_ros2/msg/DVL,0.5027458760789888,std_msgs/msg/Header,vehicle/Nucleus_1000_DVL,builtin_interfaces/msg/Time,488430629,1760946537,geometry_msgs/msg/Vector3,-0.014452724899387325,-0.1711032198434189,0.008436337962259951
1760946537.6143332,stonefish_ros2/msg/DVL,37.76933621925749,std_msgs/msg/Header,vehicle/Nucleus_1000_DVL,builtin_interfaces/msg/Time,614264051,1760946537,geometry_msgs/msg/Vector3,-0.02150454906162387,-0.17571330899915444,-0.008319380325594233
1760946537.7396865,stonefish_ros2/msg/DVL,0.4796646666495537,std_msgs/msg/Header,vehicle/Nucleus_1000_DVL,builtin_interfaces/msg/Time,739659569,1760946537,geometry_msgs/msg/Vector3,-0.04101516071800519,-0.18781583709034413,-0.013791563165282114
1760946537.8620975,stonefish_ros2/msg/DVL,0.4955972509185818,std_msgs/msg/Header,vehicle/Nucleus_1000_DVL,builtin_interfaces/msg/Time,862058739,1760946537,geometry_msgs/msg/Vector3,-0.037407109169612665,-0.20170685598474924,-0.024116047184145853
1760946537.9911306,stonefish_ros2/msg/DVL,38.69668476622555,std_msgs/msg/Header,vehicle/Nucleus_1000_DVL,builtin_interfaces/msg/Time,991093226,1760946537,geometry_msgs/msg/Vector3,-0.0399613101359872,-0.20807729204957487,0.000361597903452273
1760946538.1135154,stonefish_ros2/msg/DVL,0.4747352671339622,std_msgs/msg/Header,vehicle/Nucleus_1000_DVL,builtin_interfaces/msg/Time,113441988,1760946538,geometry_msgs/msg/Vector3,-0.04289853010095665,-0.19845646979984682,-0.0022523265120872075
1760946538.2391562,stonefish_ros2/msg/DVL,0.48193451109775504,std_msgs/msg/Header,vehicle/Nucleus_1000_DVL,builtin_interfaces/msg/Time,239108283,1760946538,geometry_msgs/msg/Vector3,-0.027343551097514577,-0.20371474350378058,0.002304948139395172
1760946538.3645608,stonefish_ros2/msg/DVL,0.48882839842555886,std_msgs/msg/Header,vehicle/Nucleus_1000_DVL,builtin_interfaces/msg/Time,364510061,1760946538,geometry_msgs/msg/Vector3,-0.008286095768649018,-0.19458427067152514,-0.00047155525242805873
1760946538.490077,stonefish_ros2/msg/DVL,0.49485518161465664,std_msgs/msg/Header,vehicle/Nucleus_1000_DVL,builtin_interfaces/msg/Time,490045896,1760946538,geometry_msgs/msg/Vector3,-0.001423389593115468,-0.17077366916323058,0.0077888272348591026
1760946538.6123748,stonefish_ros2/msg/DVL,0.4782367411744387,std_msgs/msg/Header,vehicle/Nucleus_1000_DVL,builtin_interfaces/msg/Time,612347248,1760946538,geometry_msgs/msg/Vector3,-0.009899436057846026,-0.1920768862438296,-0.01412586587716219
1760946538.741176,stonefish_ros2/msg/DVL,0.49394876029534773,std_msgs/msg/Header,vehicle/Nucleus_1000_DVL,builtin_interfaces/msg/Time,741153228,1760946538,geometry_msgs/msg/Vector3,-0.009415084986119567,-0.1849977957838495,-0.0004889263343217862
1760946538.8631759,stonefish_ros2/msg/DVL,36.25184712148777,std_msgs/msg/Header,vehicle/Nucleus_1000_DVL,builtin_interfaces/msg/Time,863118354,1760946538,geometry_msgs/msg/Vector3,-0.008060240460914442,-0.20650443483056627,-0.024484679691099742
1760946538.9888597,stonefish_ros2/msg/DVL,0.49237965115374427,std_msgs/msg/Header,vehicle/Nucleus_1000_DVL,builtin_interfaces/msg/Time,988815158,1760946538,geometry_msgs/msg/Vector3,0.020662216443566486,-0.20589354639162127,-0.015431944074380291
1760946539.1144712,stonefish_ros2/msg/DVL,0.4649608720368378,std_msgs/msg/Header,vehicle/Nucleus_1000_DVL,builtin_interfaces/msg/Time,114400544,1760946539,geometry_msgs/msg/Vector3,0.002225575732286221,-0.1936773537893113,-0.01700546236794887
1760946539.2400115,stonefish_ros2/msg/DVL,0.48644435650456014,std_msgs/msg/Header,vehicle/Nucleus_1000_DVL,builtin_interfaces/msg/Time,239978100,1760946539,geometry_msgs/msg/Vector3,-0.003668978681177709,-0.218834555405242,0.0086410657716492
1760946539.3622155,stonefish_ros2/msg/DVL,0.4877182334564658,std_msgs/msg/Header,vehicle/Nucleus_1000_DVL,builtin_interfaces/msg/Time,362178413,1760946539,geometry_msgs/msg/Vector3,-0.019667602340371737,-0.20153891417772507,0.0015216364673089986
1760946539.4913933,stonefish_ros2/msg/DVL,0.47711849924173855,std_msgs/msg/Header,vehicle/Nucleus_1000_DVL,builtin_interfaces/msg/Time,491328649,1760946539,geometry_msgs/msg/Vector3,0.0051827492230782065,-0.20006802762466536,6.64016499618658e-05
1760946539.613431,stonefish_ros2/msg/DVL,0.4686843683845716,std_msgs/msg/Header,vehicle/Nucleus_1000_DVL,builtin_interfaces/msg/Time,613395654,1760946539,geometry_msgs/msg/Vector3,0.004807235531356389,-0.18077317545201893,-0.005001951875003923
1760946539.7390852,stonefish_ros2/msg/DVL,0.4764865506909568,std_msgs/msg/Header,vehicle/Nucleus_1000_DVL,builtin_interfaces/msg/Time,739036329,1760946539,geometry_msgs/msg/Vector3,-0.005314309655910091,-0.18936455838324207,0.0040376363988524015
1760946539.8613017,stonefish_ros2/msg/DVL,0.47652399273362883,std_msgs/msg/Header,vehicle/Nucleus_1000_DVL,builtin_interfaces/msg/Time,861260072,1760946539,geometry_msgs/msg/Vector3,-0.028461524738262845,-0.15889222194521455,-0.009937142444629489
1760946539.9903634,stonefish_ros2/msg/DVL,0.4860550583350299,std_msgs/msg/Header,vehicle/Nucleus_1000_DVL,builtin_interfaces/msg/Time,990294759,1760946539,geometry_msgs/msg/Vector3,-0.024665119346347915,-0.15370911030917786,-0.015269594142716105
1760946540.1122985,stonefish_ros2/msg/DVL,0.48203361272644096,std_msgs/msg/Header,vehicle/Nucleus_1000_DVL,builtin_interfaces/msg/Time,112237916,1760946540,geometry_msgs/msg/Vector3,-0.0412824184701574,-0.15876152708078214,-0.009764705459303382
1760946540.2378721,stonefish_ros2/msg/DVL,0.47031425861725096,std_msgs/msg/Header,vehicle/Nucleus_1000_DVL,builtin_interfaces/msg/Time,237847531,1760946540,geometry_msgs/msg/Vector3,-0.007260607966279327,-0.16367091456493757,-0.03120786444944116
1760946540.3637817,stonefish_ros2/msg/DVL,37.005595867594764,std_msgs/msg/Header,vehicle/Nucleus_1000_DVL,builtin_interfaces/msg/Time,363722033,1760946540,geometry_msgs/msg/Vector3,0.02142832925384406,-0.16163731066001602,-0.019496858622171834
1760946540.48921,stonefish_ros2/msg/DVL,0.46881301220180893,std_msgs/msg/Header,vehicle/Nucleus_1000_DVL,builtin_interfaces/msg/Time,489172841,1760946540,geometry_msgs/msg/Vector3,0.043953880261485764,-0.17321175807838843,-0.025865572823224037
1760946540.6115432,stonefish_ros2/msg/DVL,0.45557002663145685,std_msgs/msg/Header,vehicle/Nucleus_1000_DVL,builtin_interfaces/msg/Time,611500223,1760946540,geometry_msgs/msg/Vector3,0.04076047809795815,-0.20529492592729398,-0.018717041848040968
1760946540.7404494,stonefish_ros2/msg/DVL,0.4602809584296702,std_msgs/msg/Header,vehicle/Nucleus_1000_DVL,builtin_interfaces/msg/Time,740398602,1760946540,geometry_msgs/msg/Vector3,0.039006495242282946,-0.20466569451359842,-0.031008251784911556
1760946540.862292,stonefish_ros2/msg/DVL,0.47124066339856424,std_msgs/msg/Header,vehicle/Nucleus_1000_DVL,builtin_interfaces/msg/Time,862248119,1760946540,geometry_msgs/msg/Vector3,0.014754213787421458,-0.2044931785127702,-0.04740622797682393
1760946540.991074,stonefish_ros2/msg/DVL,0.4422793563910115,std_msgs/msg/Header,vehicle/Nucleus_1000_DVL,builtin_interfaces/msg/Time,991031230,1760946540,geometry_msgs/msg/Vector3,0.025427158011771322,-0.23081027433426132,-0.008914179817504735
1760946541.1130004,stonefish_ros2/msg/DVL,0.4673789829502947,std_msgs/msg/Header,vehicle/Nucleus_1000_DVL,builtin_interfaces/msg/Time,112961286,1760946541,geometry_msgs/msg/Vector3,0.028561441625198074,-0.24928812733946268,-0.03663978675225748
1760946541.2386405,stonefish_ros2/msg/DVL,0.45664988928894734,std_msgs/msg/Header,vehicle/Nucleus_1000_DVL,builtin_interfaces/msg/Time,238612001,1760946541,geometry_msgs/msg/Vector3,0.015537099772434334,-0.24847621966235509,-0.025222543591674244
1760946541.3640554,stonefish_ros2/msg/DVL,34.73600043841622,std_msgs/msg/Header,vehicle/Nucleus_1000_DVL,builtin_interfaces/msg/Time,364014409,1760946541,geometry_msgs/msg/Vector3,-0.015070532630098455,-0.2692462386230433,-0.02422781485056685
1760946541.4895458,stonefish_ros2/msg/DVL,34.90933233858418,std_msgs/msg/Header,vehicle/Nucleus_1000_DVL,builtin_interfaces/msg/Time,489433067,1760946541,geometry_msgs/msg/Vector3,-0.003514987711325409,-0.2405122883409263,-0.020124634487928394
1760946541.6117368,stonefish_ros2/msg/DVL,0.4402885460555639,std_msgs/msg/Header,vehicle/Nucleus_1000_DVL,builtin_interfaces/msg/Time,611661681,1760946541,geometry_msgs/msg/Vector3,-0.0020550210271731086,-0.21764394848092133,-0.009540318762880837
1760946541.740652,stonefish_ros2/msg/DVL,0.4604054331435389,std_msgs/msg/Header,vehicle/Nucleus_1000_DVL,builtin_interfaces/msg/Time,740605110,1760946541,geometry_msgs/msg/Vector3,-0.01874466911116932,-0.19680592271471012,-0.006208912599337231
1760946541.8625574,stonefish_ros2/msg/DVL,35.865227084062994,std_msgs/msg/Header,vehicle/Nucleus_1000_DVL,builtin_interfaces/msg/Time,862487857,1760946541,geometry_msgs/msg/Vector3,-0.029704741277854288,-0.18608466603218135,-0.009957657654221326
1760946541.9882798,stonefish_ros2/msg/DVL,0.4571472915713849,std_msgs/msg/Header,vehicle/Nucleus_1000_DVL,builtin_interfaces/msg/Time,988202482,1760946541,geometry_msgs/msg/Vector3,-0.04601453387308194,-0.1775317420398826,-0.011433555562024338
1760946542.1139622,stonefish_ros2/msg/DVL,0.43539232022102387,std_msgs/msg/Header,vehicle/Nucleus_1000_DVL,builtin_interfaces/msg/Time,113904767,1760946542,geometry_msgs/msg/Vector3,-0.021411904934531087,-0.18445603369887076,0.009100573092688687
1760946542.239381,stonefish_ros2/msg/DVL,37.43814591050112,std_msgs/msg/Header,vehicle/Nucleus_1000_DVL,builtin_interfaces/msg/Time,239356774,1760946542,geometry_msgs/msg/Vector3,-0.04063547769661558,-0.17152868182035547,-0.0030244590870667286
1760946542.3615074,stonefish_ros2/msg/DVL,0.425944726675673,std_msgs/msg/Header,vehicle/Nucleus_1000_DVL,builtin_interfaces/msg/Time,361469169,1760946542,geometry_msgs/msg/Vector3,-0.05339329748706688,-0.17989218249836003,0.008986844552422657
1760946542.4903724,stonefish_ros2/msg/DVL,38.98325824260399,std_msgs/msg/Header,vehicle/Nucleus_1000_DVL,builtin_interfaces/msg/Time,490343639,1760946542,geometry_msgs/msg/Vector3,-0.022031281465994736,-0.1749038673989918,0.013453389990896259
1760946542.612409,stonefish_ros2/msg/DVL,0.42405384374318894,std_msgs/msg/Header,vehicle/Nucleus_1000_DVL,builtin_interfaces/msg/Time,612363005,1760946542,geometry_msgs/msg/Vector3,-0.014543684511008265,-0.17364445086719857,0.011416550108116532
1760946542.7379894,stonefish_ros2/msg/DVL,0.43451859469126797,std_msgs/msg/Header,vehicle/Nucleus_1000_DVL,builtin_interfaces/msg/Time,737962151,1760946542,geometry_msgs/msg/Vector3,-0.006934568160327769,-0.1678999607881413,0.004103741245665208
1760946542.8633416,stonefish_ros2/msg/DVL,0.4239764875199094,std_msgs/msg/Header,vehicle/Nucleus_1000_DVL,builtin_interfaces/msg/Time,863284711,1760946542,geometry_msgs/msg/Vector3,0.016686478108918375,-0.18400283994075955,0.01032389763123429
1760946542.988643,stonefish_ros2/msg/DVL,0.4330405084581963,std_msgs/msg/Header,vehicle/Nucleus_1000_DVL,builtin_interfaces/msg/Time,988581160,1760946542,geometry_msgs/msg/Vector3,0.01995029926311223,-0.2166852640365784,-0.011989642457370216
1760946543.1139116,stonefish_ros2/msg/DVL,0.41958483437289185,std_msgs/msg/Header,vehicle/Nucleus_1000_DVL,builtin_interfaces/msg/Time,113861220,1760946543,geometry_msgs/msg/Vector3,0.019204434887263054,-0.2069439330211465,0.0029292676758158834
1760946543.239336,stonefish_ros2/msg/DVL,0.44756967890425103,std_msgs/msg/Header,vehicle/Nucleus_1000_DVL,builtin_interfaces/msg/Time,239267379,1760946543,geometry_msgs/msg/Vector3,-0.007262783900630326,-0.22189663666519302,-0.020652467346239295
1760946543.3615088,stonefish_ros2/msg/DVL,0.42563325186378126,std_msgs/msg/Header,vehicle/Nucleus_1000_DVL,builtin_interfaces/msg/Time,361462203,1760946543,geometry_msgs/msg/Vector3,0.025538080858581128,-0.22421184568699956,-0.04324212481933172
1760946543.4907029,stonefish_ros2/msg/DVL,0.42496978731772633,std_msgs/msg/Header,vehicle/Nucleus_1000_DVL,builtin_interfaces/msg/Time,490637180,1760946543,geometry_msgs/msg/Vector3,0.014988076830300408,-0.21548180669755648,-0.009988554355723973
1760946543.613046,stonefish_ros2/msg/DVL,0.43017971289806856,std_msgs/msg/Header,vehicle/Nucleus_1000_DVL,builtin_interfaces/msg/Time,612991842,1760946543,geometry_msgs/msg/Vector3,-0.0028630116092922585,-0.18930677284746225,-0.01414003688250221
1760946543.7387843,stonefish_ros2/msg/DVL,0.42209696440279654,std_msgs/msg/Header,vehicle/Nucleus_1000_DVL,builtin_interfaces/msg/Time,738745077,1760946543,geometry_msgs/msg/Vector3,-0.029911941360554,-0.23215904138432572,-0.014548133465928734
1760946543.8641574,stonefish_ros2/msg/DVL,0.3959495262561271,std_msgs/msg/Header,vehicle/Nucleus_1000_DVL,builtin_interfaces/msg/Time,864109716,1760946543,geometry_msgs/msg/Vector3,-0.020223476758188363,-0.2206776580449577,-0.001982072761819312
1760946543.9895797,stonefish_ros2/msg/DVL,34.64036563608463,std_msgs/msg/Header,vehicle/Nucleus_1000_DVL,builtin_interfaces/msg/Time,989506705,1760946543,geometry_msgs/msg/Vector3,-0.022997198144433097,-0.22897751463632862,-0.012621156547296598
1760946544.1116848,stonefish_ros2/msg/DVL,34.778039135947054,std_msgs/msg/Header,vehicle/Nucleus_1000_DVL,builtin_interfaces/msg/Time,111626720,1760946544,geometry_msgs/msg/Vector3,-0.022986894035737834,-0.2127657945303472,0.020142924236102134
1760946544.2406712,stonefish_ros2/msg/DVL,35.033829797060854,std_msgs/msg/Header,vehicle/Nucleus_1000_DVL,builtin_interfaces/msg/Time,240632419,1760946544,geometry_msgs/msg/Vector3,-0.023881606249926846,-0.20319844435830528,0.00856182453194616
1760946544.3629026,stonefish_ros2/msg/DVL,35.552154193910965,std_msgs/msg/Header,vehicle/Nucleus_1000_DVL,builtin_interfaces/msg/Time,362859193,1760946544,geometry_msgs/msg/Vector3,-0.03749096398249547,-0.1832591893889371,0.010216310356710188
1760946544.4883208,stonefish_ros2/msg/DVL,0.4104593354124073,std_msgs/msg/Header,vehicle/Nucleus_1000_DVL,builtin_interfaces/msg/Time,488291352,1760946544,geometry_msgs/msg/Vector3,-0.01761261985532741,-0.1917161037020099,0.017735942088841723
1760946544.6140316,stonefish_ros2/msg/DVL,0.421342493199959,std_msgs/msg/Header,vehicle/Nucleus_1000_DVL,builtin_interfaces/msg/Time,613962718,1760946544,geometry_msgs/msg/Vector3,-0.020306462200392797,-0.18848585590144293,0.02797049525780384
1760946544.7396898,stonefish_ros2/msg/DVL,36.93493380996235,std_msgs/msg/Header,vehicle/Nucleus_1000_DVL,builtin_interfaces/msg/Time,739611653,1760946544,geometry_msgs/msg/Vector3,0.004675546482734603,-0.18744985609743553,0.020443456301208588
1760946544.8618932,stonefish_ros2/msg/DVL,0.42980808681360216,std_msgs/msg/Header,vehicle/Nucleus_1000_DVL,builtin_interfaces/msg/Time,861833277,1760946544,geometry_msgs/msg/Vector3,0.014732928466713629,-0.20838337862096895,0.026093943101545142
1760946544.9875686,stonefish_ros2/msg/DVL,0.416140550448528,std_msgs/msg/Header,vehicle/Nucleus_1000_DVL,builtin_interfaces/msg/Time,987542752,1760946544,geometry_msgs/msg/Vector3,0.015413846149967544,-0.2010552637316503,0.030030881744684455
1760946545.1132977,stonefish_ros2/msg/DVL,0.4367622681443974,std_msgs/msg/Header,vehicle/Nucleus_1000_DVL,builtin_interfaces/msg/Time,113214088,1760946545,geometry_msgs/msg/Vector3,0.03390054061207955,-0.2278050481870014,0.01775702921752488
1760946545.2388375,stonefish_ros2/msg/DVL,0.4313729197476508,std_msgs/msg/Header,vehicle/Nucleus_1000_DVL,builtin_interfaces/msg/Time,238778455,1760946545,geometry_msgs/msg/Vector3,0.016042430902993336,-0.23387432735198405,0.025188062856818058
1760946545.361181,stonefish_ros2/msg/DVL,0.4525951506817164,std_msgs/msg/Header,vehicle/Nucleus_1000_DVL,builtin_interfaces/msg/Time,361118858,1760946545,geometry_msgs/msg/Vector3,0.006335364476355528,-0.22155825573022894,6.168381854625583e-06
1760946545.490301,stonefish_ros2/msg/DVL,0.46578954547197565,std_msgs/msg/Header,vehicle/Nucleus_1000_DVL,builtin_interfaces/msg/Time,490271195,1760946545,geometry_msgs/msg/Vector3,0.0020208810176329437,-0.21883033115106273,-0.0014129583790663145
1760946545.6124432,stonefish_ros2/msg/DVL,0.4374469641724668,std_msgs/msg/Header,vehicle/Nucleus_1000_DVL,builtin_interfaces/msg/Time,612406860,1760946545,geometry_msgs/msg/Vector3,-0.005580423130327173,-0.23502124249067805,0.0020584073341979106
1760946545.7380602,stonefish_ros2/msg/DVL,35.88386922016182,std_msgs/msg/Header,vehicle/Nucleus_1000_DVL,builtin_interfaces/msg/Time,738035926,1760946545,geometry_msgs/msg/Vector3,-0.017996772985757574,-0.21145154262470459,0.011362246516479659
1760946545.86378,stonefish_ros2/msg/DVL,35.73712654469321,std_msgs/msg/Header,vehicle/Nucleus_1000_DVL,builtin_interfaces/msg/Time,863714632,1760946545,geometry_msgs/msg/Vector3,-0.0363115049017333,-0.20232778633212903,0.008611468053838391
1760946545.9895945,stonefish_ros2/msg/DVL,0.43401322683696403,std_msgs/msg/Header,vehicle/Nucleus_1000_DVL,builtin_interfaces/msg/Time,989561595,1760946545,geometry_msgs/msg/Vector3,-0.02451135354429272,-0.1857231568480279,-0.009021499250998625
1760946546.1119916,stonefish_ros2/msg/DVL,0.4440035846392623,std_msgs/msg/Header,vehicle/Nucleus_1000_DVL,builtin_interfaces/msg/Time,111948298,1760946546,geometry_msgs/msg/Vector3,-0.047676239655569205,-0.16525914142722611,-0.005295581077446724
1760946546.2376392,stonefish_ros2/msg/DVL,0.4467327215727245,std_msgs/msg/Header,vehicle/Nucleus_1000_DVL,builtin_interfaces/msg/Time,237593025,1760946546,geometry_msgs/msg/Vector3,-0.02515306738083154,-0.16745504017784696,0.020176413850848857
1760946546.3667305,stonefish_ros2/msg/DVL,35.355183014139826,std_msgs/msg/Header,vehicle/Nucleus_1000_DVL,builtin_interfaces/msg/Time,366678643,1760946546,geometry_msgs/msg/Vector3,-0.02070993572836536,-0.15824901798514313,0.01563288889223306
1760946546.4890904,stonefish_ros2/msg/DVL,0.4470101436446507,std_msgs/msg/Header,vehicle/Nucleus_1000_DVL,builtin_interfaces/msg/Time,489066576,1760946546,geometry_msgs/msg/Vector3,0.001497697189146805,-0.17880751168678585,-0.002032080208119777
1760946546.6148674,stonefish_ros2/msg/DVL,0.45062753114276427,std_msgs/msg/Header,vehicle/Nucleus_1000_DVL,builtin_interfaces/msg/Time,614783141,1760946546,geometry_msgs/msg/Vector3,0.0034662182492659586,-0.18046783716920903,0.017416564729650554
1760946546.7401965,stonefish_ros2/msg/DVL,0.42556215188855323,std_msgs/msg/Header,vehicle/Nucleus_1000_DVL,builtin_interfaces/msg/Time,740159371,1760946546,geometry_msgs/msg/Vector3,-0.009409808947569095,-0.18095360264931057,0.006675428024452038
1760946546.8658795,stonefish_ros2/msg/DVL,0.4537010333804818,std_msgs/msg/Header,vehicle/Nucleus_1000_DVL,builtin_interfaces/msg/Time,865826757,1760946546,geometry_msgs/msg/Vector3,-0.027379420866875337,-0.1892514066367143,0.02698806826118551
1760946546.9882724,stonefish_ros2/msg/DVL,0.4672520701183145,std_msgs/msg/Header,vehicle/Nucleus_1000_DVL,builtin_interfaces/msg/Time,988246169,1760946546,geometry_msgs/msg/Vector3,-0.014182906711732212,-0.1795909743762785,0.01617210543782444
1760946547.11713,stonefish_ros2/msg/DVL,0.45193457329279,std_msgs/msg/Header,vehicle/Nucleus_1000_DVL,builtin_interfaces/msg/Time,117094960,1760946547,geometry_msgs/msg/Vector3,-0.011429878419043043,-0.17201027548912912,0.017519139313318433
1760946547.2395515,stonefish_ros2/msg/DVL,0.4598902455830029,std_msgs/msg/Header,vehicle/Nucleus_1000_DVL,builtin_interfaces/msg/Time,239517883,1760946547,geometry_msgs/msg/Vector3,-0.031598040019977326,-0.18640604155705093,0.007238786168148635
1760946547.3653362,stonefish_ros2/msg/DVL,0.47410000359388454,std_msgs/msg/Header,vehicle/Nucleus_1000_DVL,builtin_interfaces/msg/Time,365296188,1760946547,geometry_msgs/msg/Vector3,-0.01689356686235065,-0.2113389889298122,0.007400964407493139
1760946547.487724,stonefish_ros2/msg/DVL,0.4606618968812848,std_msgs/msg/Header,vehicle/Nucleus_1000_DVL,builtin_interfaces/msg/Time,487699391,1760946547,geometry_msgs/msg/Vector3,0.00221414474090581,-0.21483847928955122,-0.006121798770286518
1760946547.6167724,stonefish_ros2/msg/DVL,0.46831435549227907,std_msgs/msg/Header,vehicle/Nucleus_1000_DVL,builtin_interfaces/msg/Time,616724610,1760946547,geometry_msgs/msg/Vector3,-0.009728218423050442,-0.22328625932823037,0.010275848428365843
1760946547.739115,stonefish_ros2/msg/DVL,0.46464976854233664,std_msgs/msg/Header,vehicle/Nucleus_1000_DVL,builtin_interfaces/msg/Time,739064234,1760946547,geometry_msgs/msg/Vector3,-2.044491892996391e-05,-0.21598045729232637,-0.006325409063108148
1760946547.8646815,stonefish_ros2/msg/DVL,0.4714385297456987,std_msgs/msg/Header,vehicle/Nucleus_1000_DVL,builtin_interfaces/msg/Time,864636472,1760946547,geometry_msgs/msg/Vector3,0.007927537808042767,-0.210004652174191,0.015101658922570968
1760946547.9871957,stonefish_ros2/msg/DVL,0.45501807068145805,std_msgs/msg/Header,vehicle/Nucleus_1000_DVL,builtin_interfaces/msg/Time,987164923,1760946547,geometry_msgs/msg/Vector3,0.02861636168522004,-0.2198308575713304,0.010106569732679925
1760946548.1162517,stonefish_ros2/msg/DVL,0.45210415110160757,std_msgs/msg/Header,vehicle/Nucleus_1000_DVL,builtin_interfaces/msg/Time,116183452,1760946548,geometry_msgs/msg/Vector3,0.03340092618392648,-0.19635396236643862,0.008750822734502287
1760946548.2386732,stonefish_ros2/msg/DVL,0.4694384238709088,std_msgs/msg/Header,vehicle/Nucleus_1000_DVL,builtin_interfaces/msg/Time,238644624,1760946548,geometry_msgs/msg/Vector3,0.026236318360874335,-0.20884224840187862,-0.016574531119039775
1760946548.3643847,stonefish_ros2/msg/DVL,0.45242852387727645,std_msgs/msg/Header,vehicle/Nucleus_1000_DVL,builtin_interfaces/msg/Time,364306540,1760946548,geometry_msgs/msg/Vector3,0.02802486971607429,-0.19834142787350134,-0.01243193962302795
1760946548.4902349,stonefish_ros2/msg/DVL,0.47659481585066543,std_msgs/msg/Header,vehicle/Nucleus_1000_DVL,builtin_interfaces/msg/Time,490204554,1760946548,geometry_msgs/msg/Vector3,0.011447182596665018,-0.1928805864641172,-0.009310651097228874
1760946548.6155891,stonefish_ros2/msg/DVL,0.47203275890366675,std_msgs/msg/Header,vehicle/Nucleus_1000_DVL,builtin_interfaces/msg/Time,615540555,1760946548,geometry_msgs/msg/Vector3,0.011059640135719705,-0.2012250348506201,-0.00954943696724554
1760946548.7377372,stonefish_ros2/msg/DVL,0.4567777872082374,std_msgs/msg/Header,vehicle/Nucleus_1000_DVL,builtin_interfaces/msg/Time,737686700,1760946548,geometry_msgs/msg/Vector3,-0.021719965349865016,-0.21583295048227005,-0.027107968547318586
1760946548.8668015,stonefish_ros2/msg/DVL,0.4667504726036195,std_msgs/msg/Header,vehicle/Nucleus_1000_DVL,builtin_interfaces/msg/Time,866753749,1760946548,geometry_msgs/msg/Vector3,-0.026935844857884087,-0.23354195698748828,-0.011539902727208505
1760946548.9892545,stonefish_ros2/msg/DVL,0.4596978712025992,std_msgs/msg/Header,vehicle/Nucleus_1000_DVL,builtin_interfaces/msg/Time,989202442,1760946548,geometry_msgs/msg/Vector3,-0.035690105496857465,-0.20952772888490603,-0.013294135435322381
1760946549.1149251,stonefish_ros2/msg/DVL,36.76796787957905,std_msgs/msg/Header,vehicle/Nucleus_1000_DVL,builtin_interfaces/msg/Time,114867469,1760946549,geometry_msgs/msg/Vector3,-0.03154863490014412,-0.20042162562782515,-0.007798338521489931
1760946549.237344,stonefish_ros2/msg/DVL,0.46930209978385784,std_msgs/msg/Header,vehicle/Nucleus_1000_DVL,builtin_interfaces/msg/Time,237267472,1760946549,geometry_msgs/msg/Vector3,-0.04440820527490405,-0.19631534404946005,0.002026237975947975
1760946549.3664875,stonefish_ros2/msg/DVL,0.46151182283228415,std_msgs/msg/Header,vehicle/Nucleus_1000_DVL,builtin_interfaces/msg/Time,366427370,1760946549,geometry_msgs/msg/Vector3,-0.04940948308170155,-0.1818936050613378,0.0034146168746696974
1760946549.4889543,stonefish_ros2/msg/DVL,0.4655423869192416,std_msgs/msg/Header,vehicle/Nucleus_1000_DVL,builtin_interfaces/msg/Time,488926012,1760946549,geometry_msgs/msg/Vector3,-0.017520531665598464,-0.18181082510875538,0.0020661458512831812
1760946549.6148329,stonefish_ros2/msg/DVL,0.46363811544476496,std_msgs/msg/Header,vehicle/Nucleus_1000_DVL,builtin_interfaces/msg/Time,614776706,1760946549,geometry_msgs/msg/Vector3,0.002887889375978404,-0.18680457828305766,0.0053916486894357175
1760946549.7371767,stonefish_ros2/msg/DVL,0.4811472958595045,std_msgs/msg/Header,vehicle/Nucleus_1000_DVL,builtin_interfaces/msg/Time,737151409,1760946549,geometry_msgs/msg/Vector3,0.005079007208578454,-0.182383780259795,0.014157917899557738
1760946549.8662138,stonefish_ros2/msg/DVL,0.46112624873213426,std_msgs/msg/Header,vehicle/Nucleus_1000_DVL,builtin_interfaces/msg/Time,866143259,1760946549,geometry_msgs/msg/Vector3,0.019134879760587517,-0.1674526555739812,0.01577222253442813
1760946549.9882731,stonefish_ros2/msg/DVL,0.49131704749403976,std_msgs/msg/Header,vehicle/Nucleus_1000_DVL,builtin_interfaces/msg/Time,988252375,1760946549,geometry_msgs/msg/Vector3,0.0074371185035826005,-0.19258875326791128,-0.0002460076562451471
1760946550.1142352,stonefish_ros2/msg/DVL,0.46190893213907247,std_msgs/msg/Header,vehicle/Nucleus_1000_DVL,builtin_interfaces/msg/Time,114146580,1760946550,geometry_msgs/msg/Vector3,-0.0012272247209178435,-0.20975952140306434,-0.027683482797260912
1760946550.24005,stonefish_ros2/msg/DVL,0.47099484965674443,std_msgs/msg/Header,vehicle/Nucleus_1000_DVL,builtin_interfaces/msg/Time,239996445,1760946550,geometry_msgs/msg/Vector3,0.004591315747464872,-0.18743064600624681,-0.022904387480148936
1760946550.3656497,stonefish_ros2/msg/DVL,0.4622722059108954,std_msgs/msg/Header,vehicle/Nucleus_1000_DVL,builtin_interfaces/msg/Time,365614802,1760946550,geometry_msgs/msg/Vector3,-0.01766580230911771,-0.20634773105820364,-0.028263008853586166
1760946550.4880123,stonefish_ros2/msg/DVL,0.47435118626122147,std_msgs/msg/Header,vehicle/Nucleus_1000_DVL,builtin_interfaces/msg/Time,487975196,1760946550,geometry_msgs/msg/Vector3,-0.027941805510202655,-0.2083234868360353,-0.03574540821354961
1760946550.613776,stonefish_ros2/msg/DVL,37.26911959399409,std_msgs/msg/Header,vehicle/Nucleus_1000_DVL,builtin_interfaces/msg/Time,613739472,1760946550,geometry_msgs/msg/Vector3,-0.03782467512936132,-0.2157141884899222,-0.05483223098507139
1760946550.7394474,stonefish_ros2/msg/DVL,0.46596286947867244,std_msgs/msg/Header,vehicle/Nucleus_1000_DVL,builtin_interfaces/msg/Time,739392740,1760946550,geometry_msgs/msg/Vector3,-0.023040965133432116,-0.19168465700774343,-0.037732905675311706
1760946550.865125,stonefish_ros2/msg/DVL,0.4677769660979559,std_msgs/msg/Header,vehicle/Nucleus_1000_DVL,builtin_interfaces/msg/Time,865054367,1760946550,geometry_msgs/msg/Vector3,-0.017865059115412543,-0.17432594584284153,-0.061759583888057176
1760946550.987377,stonefish_ros2/msg/DVL,0.4694718997286025,std_msgs/msg/Header,vehicle/Nucleus_1000_DVL,builtin_interfaces/msg/Time,987353581,1760946550,geometry_msgs/msg/Vector3,-0.012191576106081186,-0.1600548989506429,-0.03300653149100001
1760946551.1162453,stonefish_ros2/msg/DVL,0.45641899386980617,std_msgs/msg/Header,vehicle/Nucleus_1000_DVL,builtin_interfaces/msg/Time,116187953,1760946551,geometry_msgs/msg/Vector3,0.0023377885048297877,-0.160421319895194,-0.018747029493318475
1760946551.238471,stonefish_ros2/msg/DVL,0.44453028476760714,std_msgs/msg/Header,vehicle/Nucleus_1000_DVL,builtin_interfaces/msg/Time,238430568,1760946551,geometry_msgs/msg/Vector3,-0.01441364398252889,-0.15762299621557052,-0.01159238362060501
1760946551.364022,stonefish_ros2/msg/DVL,0.461368825802571,std_msgs/msg/Header,vehicle/Nucleus_1000_DVL,builtin_interfaces/msg/Time,363973857,1760946551,geometry_msgs/msg/Vector3,-0.018934746658674364,-0.1659202755905994,-0.004034474268727107
1760946551.4899206,stonefish_ros2/msg/DVL,37.22501347357875,std_msgs/msg/Header,vehicle/Nucleus_1000_DVL,builtin_interfaces/msg/Time,489881532,1760946551,geometry_msgs/msg/Vector3,0.008927755753117696,-0.16755140484124675,-0.007624893497170854
1760946551.6156511,stonefish_ros2/msg/DVL,0.4524096525183996,std_msgs/msg/Header,vehicle/Nucleus_1000_DVL,builtin_interfaces/msg/Time,615580228,1760946551,geometry_msgs/msg/Vector3,-0.020224895139673123,-0.19123168023689613,-0.011702501599859229
1760946551.7381525,stonefish_ros2/msg/DVL,36.64760883487751,std_msgs/msg/Header,vehicle/Nucleus_1000_DVL,builtin_interfaces/msg/Time,738090221,1760946551,geometry_msgs/msg/Vector3,0.005940402373078877,-0.2073994431683655,-0.03016860049084875
1760946551.8636754,stonefish_ros2/msg/DVL,0.4552463214066299,std_msgs/msg/Header,vehicle/Nucleus_1000_DVL,builtin_interfaces/msg/Time,863634149,1760946551,geometry_msgs/msg/Vector3,0.015231712932241286,-0.2003555595699601,-0.02864571167447856
1760946551.9894576,stonefish_ros2/msg/DVL,0.4576436882274886,std_msgs/msg/Header,vehicle/Nucleus_1000_DVL,builtin_interfaces/msg/Time,989355416,1760946551,geometry_msgs/msg/Vector3,0.01004490886276255,-0.23422136839583976,-0.024761946227171892
1760946552.1146934,stonefish_ros2/msg/DVL,0.4532652591579646,std_msgs/msg/Header,vehicle/Nucleus_1000_DVL,builtin_interfaces/msg/Time,114651697,1760946552,geometry_msgs/msg/Vector3,0.00419549377875466,-0.2129874371366815,-0.01716636424279477
1760946552.2368858,stonefish_ros2/msg/DVL,0.44249194806148484,std_msgs/msg/Header,vehicle/Nucleus_1000_DVL,builtin_interfaces/msg/Time,236846873,1760946552,geometry_msgs/msg/Vector3,0.003995860910306077,-0.22107727193891338,-0.03831901304805838
1760946552.3656778,stonefish_ros2/msg/DVL,0.42666484143918715,std_msgs/msg/Header,vehicle/Nucleus_1000_DVL,builtin_interfaces/msg/Time,365628376,1760946552,geometry_msgs/msg/Vector3,0.007805288511311983,-0.20766291131413891,-0.03624510326607387
1760946552.4880862,stonefish_ros2/msg/DVL,0.439721505889201,std_msgs/msg/Header,vehicle/Nucleus_1000_DVL,builtin_interfaces/msg/Time,488064259,1760946552,geometry_msgs/msg/Vector3,0.004281398540485367,-0.19950240131460995,-0.013469230450260418
1760946552.6135802,stonefish_ros2/msg/DVL,0.42080654463782513,std_msgs/msg/Header,vehicle/Nucleus_1000_DVL,builtin_interfaces/msg/Time,613517019,1760946552,geometry_msgs/msg/Vector3,-0.003317770673186649,-0.20207153960882934,-0.034975538754526206
1760946552.7387774,stonefish_ros2/msg/DVL,0.42003820783843004,std_msgs/msg/Header,vehicle/Nucleus_1000_DVL,builtin_interfaces/msg/Time,738752261,1760946552,geometry_msgs/msg/Vector3,-0.0010955099730342805,-0.2057893065629747,-0.021152892165767816
1760946552.8643718,stonefish_ros2/msg/DVL,0.4168097963587724,std_msgs/msg/Header,vehicle/Nucleus_1000_DVL,builtin_interfaces/msg/Time,864324310,1760946552,geometry_msgs/msg/Vector3,-0.004804436873227177,-0.19818952606585558,-0.010428554734390404
1760946552.9867501,stonefish_ros2/msg/DVL,0.4222360668477208,std_msgs/msg/Header,vehicle/Nucleus_1000_DVL,builtin_interfaces/msg/Time,986719033,1760946552,geometry_msgs/msg/Vector3,-0.020560507751334993,-0.1784743195607204,-0.024084303008130897
