t,__msgtype__,altitude,header.__msgtype__,header.frame_id,header.stamp.__msgtype__,header.stamp.nanosec,header.stamp.sec,velocity.__msgtype__,velocity.x,velocity.y,velocity.z
1761035238.5143938,stonefish_ros2/msg/DVL,0.7818162673769385,std_msgs/msg/Header,vehicle/Nucleus_1000_DVL,builtin_interfaces/msg/Time,514318850,1761035238,geometry_msgs/msg/Vector3,0.008172012134601335,-0.0259644387011608,-0.08314258833457144
1761035238.6400955,stonefish_ros2/msg/DVL,0.7841207140470023,std_msgs/msg/Header,vehicle/Nucleus_1000_DVL,builtin_interfaces/msg/Time,640008920,1761035238,geometry_msgs/msg/Vector3,-0.012826840823281192,-0.05677898817265104,-0.11616448778065636
1761035238.7623649,stonefish_ros2/msg/DVL,0.7587851773275509,std_msgs/msg/Header,vehicle/Nucleus_1000_DVL,builtin_interfaces/msg/Time,762330294,1761035238,geometry_msgs/msg/Vector3,0.01624502288828744,-0.04660118608593704,-0.1351797136100319
1761035238.8914957,stonefish_ros2/msg/DVL,0.7505859479503956,std_msgs/msg/Header,vehicle/Nucleus_1000_DVL,builtin_interfaces/msg/Time,891462469,1761035238,geometry_msgs/msg/Vector3,0.01198156869284181,-0.0574650986319188,-0.12966369803943759
1761035239.0136802,stonefish_ros2/msg/DVL,0.7240660061577641,std_msgs/msg/Header,vehicle/Nucleus_1000_DVL,builtin_interfaces/msg/Time,13650878,1761035239,geometry_msgs/msg/Vector3,0.01464502102380596,-0.07898583533906105,-0.14903535333269058
1761035239.1391623,stonefish_ros2/msg/DVL,0.7036263985945115,std_msgs/msg/Header,vehicle/Nucleus_1000_DVL,builtin_interfaces/msg/Time,139118673,1761035239,geometry_msgs/msg/Vector3,-7.359332187443536e-06,-0.07936987375279451,-0.1560522467128693
1761035239.2645574,stonefish_ros2/msg/DVL,0.6963527349349347,std_msgs/msg/Header,vehicle/Nucleus_1000_DVL,builtin_interfaces/msg/Time,264534669,1761035239,geometry_msgs/msg/Vector3,0.0042537470665490905,-0.07640344788671798,-0.17356944951527337
1761035239.3901987,stonefish_ros2/msg/DVL,0.6736067901526226,std_msgs/msg/Header,vehicle/Nucleus_1000_DVL,builtin_interfaces/msg/Time,390171278,1761035239,geometry_msgs/msg/Vector3,0.017830373237876868,-0.09368634719477775,-0.17291586944708087
1761035239.512509,stonefish_ros2/msg/DVL,0.6650950569925995,std_msgs/msg/Header,vehicle/Nucleus_1000_DVL,builtin_interfaces/msg/Time,512476239,1761035239,geometry_msgs/msg/Vector3,0.0022374148193487794,-0.11125767189452773,-0.15415991593843328
1761035239.6416268,stonefish_ros2/msg/DVL,0.6318917613115652,std_msgs/msg/Header,vehicle/Nucleus_1000_DVL,builtin_interfaces/msg/Time,641592581,1761035239,geometry_msgs/msg/Vector3,0.0006525142650016138,-0.12497851632127126,-0.14763868100094138
1761035239.7639208,stonefish_ros2/msg/DVL,0.6109254672225951,std_msgs/msg/Header,vehicle/Nucleus_1000_DVL,builtin_interfaces/msg/Time,763875873,1761035239,geometry_msgs/msg/Vector3,-0.003915847624105565,-0.14381287574260615,-0.15323606520488725
1761035239.8896463,stonefish_ros2/msg/DVL,0.6134771841844169,std_msgs/msg/Header,vehicle/Nucleus_1000_DVL,builtin_interfaces/msg/Time,889609378,1761035239,geometry_msgs/msg/Vector3,-0.012654146552143319,-0.14790114440156066,-0.13093354134015564
1761035240.0119438,stonefish_ros2/msg/DVL,0.5809861275662068,std_msgs/msg/Header,vehicle/Nucleus_1000_DVL,builtin_interfaces/msg/Time,11899309,1761035240,geometry_msgs/msg/Vector3,-0.023534254254310372,-0.18987743874224666,-0.11106163161497316
1761035240.1410425,stonefish_ros2/msg/DVL,0.5798372276495568,std_msgs/msg/Header,vehicle/Nucleus_1000_DVL,builtin_interfaces/msg/Time,141010519,1761035240,geometry_msgs/msg/Vector3,-0.006554811911355703,-0.1868961861312851,-0.09209181987765297
1761035240.2633486,stonefish_ros2/msg/DVL,0.5723380579482213,std_msgs/msg/Header,vehicle/Nucleus_1000_DVL,builtin_interfaces/msg/Time,263312637,1761035240,geometry_msgs/msg/Vector3,-0.009546904947675152,-0.20106978011011745,-0.06198346053382764
1761035240.3890803,stonefish_ros2/msg/DVL,0.54589375097053,std_msgs/msg/Header,vehicle/Nucleus_1000_DVL,builtin_interfaces/msg/Time,389044159,1761035240,geometry_msgs/msg/Vector3,-0.016914968810948058,-0.20042341460215352,-0.048448675620558754
1761035240.5147297,stonefish_ros2/msg/DVL,0.5502636567731306,std_msgs/msg/Header,vehicle/Nucleus_1000_DVL,builtin_interfaces/msg/Time,514688795,1761035240,geometry_msgs/msg/Vector3,-0.015790041482393817,-0.19368196607061164,-0.056197987717629065
1761035240.640572,stonefish_ros2/msg/DVL,0.5468394384105776,std_msgs/msg/Header,vehicle/Nucleus_1000_DVL,builtin_interfaces/msg/Time,640543083,1761035240,geometry_msgs/msg/Vector3,-0.018686741262654714,-0.1688781740181334,-0.031077929780216687
1761035240.7632506,stonefish_ros2/msg/DVL,0.5504280241279124,std_msgs/msg/Header,vehicle/Nucleus_1000_DVL,builtin_interfaces/msg/Time,763029894,1761035240,geometry_msgs/msg/Vector3,-0.05398350180992466,-0.15770676125870164,-0.04069658471971347
1761035240.8887236,stonefish_ros2/msg/DVL,0.5279106592260404,std_msgs/msg/Header,vehicle/Nucleus_1000_DVL,builtin_interfaces/msg/Time,888650981,1761035240,geometry_msgs/msg/Vector3,-0.01206166037872659,-0.1713684962700243,-0.042125360603958016
1761035241.0143301,stonefish_ros2/msg/DVL,0.5325589315990832,std_msgs/msg/Header,vehicle/Nucleus_1000_DVL,builtin_interfaces/msg/Time,14304467,1761035241,geometry_msgs/msg/Vector3,-0.04215819849652014,-0.12374686938939183,-0.051070029557021654
1761035241.140193,stonefish_ros2/msg/DVL,0.5310699704760573,std_msgs/msg/Header,vehicle/Nucleus_1000_DVL,builtin_interfaces/msg/Time,140147132,1761035241,geometry_msgs/msg/Vector3,-0.052801302308554045,-0.12805769378241175,-0.054350371541916215
1761035241.2624633,stonefish_ros2/msg/DVL,0.5327797349792118,std_msgs/msg/Header,vehicle/Nucleus_1000_DVL,builtin_interfaces/msg/Time,262435706,1761035241,geometry_msgs/msg/Vector3,-0.06372095024283313,-0.14962623484296286,-0.05227144009901222
1761035241.3914788,stonefish_ros2/msg/DVL,0.5235205684379652,std_msgs/msg/Header,vehicle/Nucleus_1000_DVL,builtin_interfaces/msg/Time,391453836,1761035241,geometry_msgs/msg/Vector3,-0.06539821884541633,-0.12569166304139978,-0.04276530483478726
1761035241.5138824,stonefish_ros2/msg/DVL,0.5217128092159738,std_msgs/msg/Header,vehicle/Nucleus_1000_DVL,builtin_interfaces/msg/Time,513820637,1761035241,geometry_msgs/msg/Vector3,-0.059635816212428354,-0.15722398152822362,-0.03849882042077954
1761035241.6396163,stonefish_ros2/msg/DVL,0.5101931498052398,std_msgs/msg/Header,vehicle/Nucleus_1000_DVL,builtin_interfaces/msg/Time,639577405,1761035241,geometry_msgs/msg/Vector3,-0.03737037174459497,-0.17881968454994004,-0.02694642369926778
1761035241.7619925,stonefish_ros2/msg/DVL,0.4989528717618292,std_msgs/msg/Header,vehicle/Nucleus_1000_DVL,builtin_interfaces/msg/Time,761925967,1761035241,geometry_msgs/msg/Vector3,-0.0358706032166041,-0.20250686012973984,-0.019603052309235085
1761035241.8911912,stonefish_ros2/msg/DVL,0.529395699061554,std_msgs/msg/Header,vehicle/Nucleus_1000_DVL,builtin_interfaces/msg/Time,891170339,1761035241,geometry_msgs/msg/Vector3,-0.024462520410821396,-0.2086261156426072,0.03479528200771477
1761035242.0135603,stonefish_ros2/msg/DVL,0.5373024167757942,std_msgs/msg/Header,vehicle/Nucleus_1000_DVL,builtin_interfaces/msg/Time,13531751,1761035242,geometry_msgs/msg/Vector3,-0.01131347468558609,-0.2137458787183253,0.046541502936582956
1761035242.1392522,stonefish_ros2/msg/DVL,0.544485381120526,std_msgs/msg/Header,vehicle/Nucleus_1000_DVL,builtin_interfaces/msg/Time,139220568,1761035242,geometry_msgs/msg/Vector3,0.0013816696293991997,-0.24818083439845673,0.08934148020316346
1761035242.2648535,stonefish_ros2/msg/DVL,0.555068201618526,std_msgs/msg/Header,vehicle/Nucleus_1000_DVL,builtin_interfaces/msg/Time,264807759,1761035242,geometry_msgs/msg/Vector3,0.007411875727833856,-0.2639794917944756,0.08827276910595835
1761035242.3905554,stonefish_ros2/msg/DVL,0.5629993929258629,std_msgs/msg/Header,vehicle/Nucleus_1000_DVL,builtin_interfaces/msg/Time,390514755,1761035242,geometry_msgs/msg/Vector3,0.019483894566358895,-0.24870173472789256,0.08322214007590133
1761035242.5128336,stonefish_ros2/msg/DVL,0.5897376208267976,std_msgs/msg/Header,vehicle/Nucleus_1000_DVL,builtin_interfaces/msg/Time,512793516,1761035242,geometry_msgs/msg/Vector3,0.009127436357418871,-0.24258638415195996,0.07203640612933514
1761035242.6383777,stonefish_ros2/msg/DVL,0.5664474656131763,std_msgs/msg/Header,vehicle/Nucleus_1000_DVL,builtin_interfaces/msg/Time,638347398,1761035242,geometry_msgs/msg/Vector3,0.02883805485374677,-0.219631084578841,0.051798069581157125
1761035242.7637777,stonefish_ros2/msg/DVL,0.5640653481112436,std_msgs/msg/Header,vehicle/Nucleus_1000_DVL,builtin_interfaces/msg/Time,763736425,1761035242,geometry_msgs/msg/Vector3,0.025500179610724642,-0.2328175932628777,0.027401403746408353
1761035242.8895102,stonefish_ros2/msg/DVL,0.572487521864891,std_msgs/msg/Header,vehicle/Nucleus_1000_DVL,builtin_interfaces/msg/Time,889411312,1761035242,geometry_msgs/msg/Vector3,0.013243202243711987,-0.22305704572030363,0.011078638513708565
1761035243.0117848,stonefish_ros2/msg/DVL,0.5858035502423719,std_msgs/msg/Header,vehicle/Nucleus_1000_DVL,builtin_interfaces/msg/Time,11742553,1761035243,geometry_msgs/msg/Vector3,0.022447164948520525,-0.2156750983427426,0.007794746355650436
1761035243.140807,stonefish_ros2/msg/DVL,0.5642264359943573,std_msgs/msg/Header,vehicle/Nucleus_1000_DVL,builtin_interfaces/msg/Time,140756826,1761035243,geometry_msgs/msg/Vector3,0.026578967005052488,-0.199795857682818,-0.02906848109115926
1761035243.2631004,stonefish_ros2/msg/DVL,0.5730316694313436,std_msgs/msg/Header,vehicle/Nucleus_1000_DVL,builtin_interfaces/msg/Time,263071782,1761035243,geometry_msgs/msg/Vector3,0.04880061528570674,-0.17659232398389713,-0.027129431404623226
1761035243.3887453,stonefish_ros2/msg/DVL,0.5745075821006644,std_msgs/msg/Header,vehicle/Nucleus_1000_DVL,builtin_interfaces/msg/Time,388705628,1761035243,geometry_msgs/msg/Vector3,0.032407400960859506,-0.1899251121348181,-0.03683552036901279
1761035243.5142477,stonefish_ros2/msg/DVL,0.5679003206502391,std_msgs/msg/Header,vehicle/Nucleus_1000_DVL,builtin_interfaces/msg/Time,514184958,1761035243,geometry_msgs/msg/Vector3,0.038055042308435205,-0.1928977932220472,-0.04928938641446862
1761035243.640004,stonefish_ros2/msg/DVL,0.5585040662384855,std_msgs/msg/Header,vehicle/Nucleus_1000_DVL,builtin_interfaces/msg/Time,639975478,1761035243,geometry_msgs/msg/Vector3,0.04313696185444245,-0.20185889454954914,-0.044745538102989965
1761035243.762484,stonefish_ros2/msg/DVL,0.5432379143569925,std_msgs/msg/Header,vehicle/Nucleus_1000_DVL,builtin_interfaces/msg/Time,762444319,1761035243,geometry_msgs/msg/Vector3,0.024683301149994126,-0.2202915033675246,-0.04811572255215098
1761035243.888368,stonefish_ros2/msg/DVL,0.5384482457815316,std_msgs/msg/Header,vehicle/Nucleus_1000_DVL,builtin_interfaces/msg/Time,888302898,1761035243,geometry_msgs/msg/Vector3,0.017525299126350747,-0.226636616687475,-0.05148501540725975
1761035244.0140357,stonefish_ros2/msg/DVL,0.5405228182939382,std_msgs/msg/Header,vehicle/Nucleus_1000_DVL,builtin_interfaces/msg/Time,13963394,1761035244,geometry_msgs/msg/Vector3,0.0414347667896485,-0.2358924480052152,-0.03693844901826765
1761035244.1397607,stonefish_ros2/msg/DVL,0.543500352542968,std_msgs/msg/Header,vehicle/Nucleus_1000_DVL,builtin_interfaces/msg/Time,139725502,1761035244,geometry_msgs/msg/Vector3,0.027523071848413072,-0.22397027492796298,0.0016350375078018383
1761035244.2621744,stonefish_ros2/msg/DVL,0.5431409006679594,std_msgs/msg/Header,vehicle/Nucleus_1000_DVL,builtin_interfaces/msg/Time,262124742,1761035244,geometry_msgs/msg/Vector3,0.033067841548172466,-0.20976699244163177,0.035840416941000486
1761035244.3912354,stonefish_ros2/msg/DVL,0.5462126145580037,std_msgs/msg/Header,vehicle/Nucleus_1000_DVL,builtin_interfaces/msg/Time,391199320,1761035244,geometry_msgs/msg/Vector3,0.029151542059049886,-0.1951609279143386,0.03845841247457384
1761035244.5133893,stonefish_ros2/msg/DVL,0.5688404973159511,std_msgs/msg/Header,vehicle/Nucleus_1000_DVL,builtin_interfaces/msg/Time,513346328,1761035244,geometry_msgs/msg/Vector3,0.018321932054077752,-0.16939504504633643,0.06748252474576451
1761035244.6388807,stonefish_ros2/msg/DVL,0.5515898994302477,std_msgs/msg/Header,vehicle/Nucleus_1000_DVL,builtin_interfaces/msg/Time,638810115,1761035244,geometry_msgs/msg/Vector3,0.008788811265458165,-0.16095856365389402,0.08955358727545312
1761035244.7642066,stonefish_ros2/msg/DVL,0.5863173694535977,std_msgs/msg/Header,vehicle/Nucleus_1000_DVL,builtin_interfaces/msg/Time,764164417,1761035244,geometry_msgs/msg/Vector3,-0.009612135719212453,-0.15601855897620368,0.07441775057417158
1761035244.8898716,stonefish_ros2/msg/DVL,0.606084929737152,std_msgs/msg/Header,vehicle/Nucleus_1000_DVL,builtin_interfaces/msg/Time,889834298,1761035244,geometry_msgs/msg/Vector3,0.005268226083131955,-0.18273075096647592,0.05982781906060208
1761035245.0121276,stonefish_ros2/msg/DVL,0.6093344555820529,std_msgs/msg/Header,vehicle/Nucleus_1000_DVL,builtin_interfaces/msg/Time,12088043,1761035245,geometry_msgs/msg/Vector3,-0.022925939026103733,-0.1808716356725986,0.05554015780345756
1761035245.1411371,stonefish_ros2/msg/DVL,0.6084826553722454,std_msgs/msg/Header,vehicle/Nucleus_1000_DVL,builtin_interfaces/msg/Time,141073050,1761035245,geometry_msgs/msg/Vector3,-0.01933334720171956,-0.18645103998068766,0.03624954416836481
1761035245.2633514,stonefish_ros2/msg/DVL,0.606121463103055,std_msgs/msg/Header,vehicle/Nucleus_1000_DVL,builtin_interfaces/msg/Time,263313022,1761035245,geometry_msgs/msg/Vector3,-0.023422609340963626,-0.16643912416882142,0.026619485797825353
1761035245.3889503,stonefish_ros2/msg/DVL,0.6093700470887347,std_msgs/msg/Header,vehicle/Nucleus_1000_DVL,builtin_interfaces/msg/Time,388900342,1761035245,geometry_msgs/msg/Vector3,-0.012006241163511774,-0.178479709405996,0.002845797616626409
1761035245.514434,stonefish_ros2/msg/DVL,0.6019064374525863,std_msgs/msg/Header,vehicle/Nucleus_1000_DVL,builtin_interfaces/msg/Time,514393506,1761035245,geometry_msgs/msg/Vector3,-0.01083856505018178,-0.1935067240417585,-0.03337893881708996
1761035245.6398647,stonefish_ros2/msg/DVL,0.6030992436653445,std_msgs/msg/Header,vehicle/Nucleus_1000_DVL,builtin_interfaces/msg/Time,639821151,1761035245,geometry_msgs/msg/Vector3,-0.016333797412585734,-0.19397082170533425,-0.04250322197900142
1761035245.761961,stonefish_ros2/msg/DVL,0.5854708612305606,std_msgs/msg/Header,vehicle/Nucleus_1000_DVL,builtin_interfaces/msg/Time,761920097,1761035245,geometry_msgs/msg/Vector3,-0.047270989242283054,-0.20038557758473613,-0.06236227327656329
1761035245.8910875,stonefish_ros2/msg/DVL,0.5888635709639284,std_msgs/msg/Header,vehicle/Nucleus_1000_DVL,builtin_interfaces/msg/Time,891062060,1761035245,geometry_msgs/msg/Vector3,-0.047469389011986926,-0.22801841681988003,-0.09951194150324114
1761035246.013433,stonefish_ros2/msg/DVL,0.5727583128381942,std_msgs/msg/Header,vehicle/Nucleus_1000_DVL,builtin_interfaces/msg/Time,13379230,1761035246,geometry_msgs/msg/Vector3,-0.03277456855115784,-0.23218634210746286,-0.1148910862936249
1761035246.1392636,stonefish_ros2/msg/DVL,0.5582061895682678,std_msgs/msg/Header,vehicle/Nucleus_1000_DVL,builtin_interfaces/msg/Time,139234938,1761035246,geometry_msgs/msg/Vector3,-0.017845522249512594,-0.23581597242599342,-0.08581600023290421
1761035246.2616606,stonefish_ros2/msg/DVL,0.5498154295833618,std_msgs/msg/Header,vehicle/Nucleus_1000_DVL,builtin_interfaces/msg/Time,261632130,1761035246,geometry_msgs/msg/Vector3,-0.025415989405127595,-0.24857183739093786,-0.052658747594605926
1761035246.3909922,stonefish_ros2/msg/DVL,0.5406095085083897,std_msgs/msg/Header,vehicle/Nucleus_1000_DVL,builtin_interfaces/msg/Time,390933924,1761035246,geometry_msgs/msg/Vector3,0.008808562808690235,-0.22613021880098974,-0.03194578656070805
1761035246.5133412,stonefish_ros2/msg/DVL,0.5584841050272208,std_msgs/msg/Header,vehicle/Nucleus_1000_DVL,builtin_interfaces/msg/Time,513290818,1761035246,geometry_msgs/msg/Vector3,0.01854908918291239,-0.23440701549905907,0.01970871134148169
1761035246.6391208,stonefish_ros2/msg/DVL,0.5547394946501127,std_msgs/msg/Header,vehicle/Nucleus_1000_DVL,builtin_interfaces/msg/Time,639071119,1761035246,geometry_msgs/msg/Vector3,0.017892585119584026,-0.24876256631100316,0.022532680553608818
1761035246.761171,stonefish_ros2/msg/DVL,0.5597184322283645,std_msgs/msg/Header,vehicle/Nucleus_1000_DVL,builtin_interfaces/msg/Time,761132763,1761035246,geometry_msgs/msg/Vector3,-0.0149264324799094,-0.22647748930717843,0.05344834972333394
1761035246.8880248,stonefish_ros2/msg/DVL,0.56055350595915,std_msgs/msg/Header,vehicle/Nucleus_1000_DVL,builtin_interfaces/msg/Time,887994297,1761035246,geometry_msgs/msg/Vector3,-0.013401173909016436,-0.2211995455309268,0.042924493067476456
1761035247.013723,stonefish_ros2/msg/DVL,0.5716625252807431,std_msgs/msg/Header,vehicle/Nucleus_1000_DVL,builtin_interfaces/msg/Time,13652233,1761035247,geometry_msgs/msg/Vector3,-0.020368641929695362,-0.2189646911630883,0.05259419349067109
1761035247.139367,stonefish_ros2/msg/DVL,0.5838905040156122,std_msgs/msg/Header,vehicle/Nucleus_1000_DVL,builtin_interfaces/msg/Time,139338883,1761035247,geometry_msgs/msg/Vector3,0.003603225666421215,-0.2195356636529067,0.06625777596186504
1761035247.261756,stonefish_ros2/msg/DVL,0.5787338659439402,std_msgs/msg/Header,vehicle/Nucleus_1000_DVL,builtin_interfaces/msg/Time,261703064,1761035247,geometry_msgs/msg/Vector3,-0.012578148756513034,-0.2176443490575419,0.04078310517193232
1761035247.3905299,stonefish_ros2/msg/DVL,0.5841775574686698,std_msgs/msg/Header,vehicle/Nucleus_1000_DVL,builtin_interfaces/msg/Time,390506681,1761035247,geometry_msgs/msg/Vector3,-0.010431551903399658,-0.19051017837162476,0.013536377426180838
1761035247.5125031,stonefish_ros2/msg/DVL,0.5983078835254002,std_msgs/msg/Header,vehicle/Nucleus_1000_DVL,builtin_interfaces/msg/Time,512475104,1761035247,geometry_msgs/msg/Vector3,-0.027766883360145246,-0.20140692887169276,0.006835212046930621
1761035247.638017,stonefish_ros2/msg/DVL,0.6010497334983842,std_msgs/msg/Header,vehicle/Nucleus_1000_DVL,builtin_interfaces/msg/Time,637972681,1761035247,geometry_msgs/msg/Vector3,-0.014328696311876832,-0.2034219106772936,-0.033392393363831846
1761035247.763544,stonefish_ros2/msg/DVL,0.6022014424926135,std_msgs/msg/Header,vehicle/Nucleus_1000_DVL,builtin_interfaces/msg/Time,763435569,1761035247,geometry_msgs/msg/Vector3,-0.004747561553582016,-0.1927024617294824,-0.0664374271626915
1761035247.8892303,stonefish_ros2/msg/DVL,0.5726792702764226,std_msgs/msg/Header,vehicle/Nucleus_1000_DVL,builtin_interfaces/msg/Time,889179937,1761035247,geometry_msgs/msg/Vector3,-0.015110376002176323,-0.19837334241793414,-0.07767322316643212
1761035248.0115848,stonefish_ros2/msg/DVL,0.5598431834579998,std_msgs/msg/Header,vehicle/Nucleus_1000_DVL,builtin_interfaces/msg/Time,11512799,1761035248,geometry_msgs/msg/Vector3,-0.010533233054633842,-0.19348394189080179,-0.07867221109672633
1761035248.140598,stonefish_ros2/msg/DVL,0.5803227237554888,std_msgs/msg/Header,vehicle/Nucleus_1000_DVL,builtin_interfaces/msg/Time,140561625,1761035248,geometry_msgs/msg/Vector3,0.019164468570398246,-0.1889925444501228,-0.06144417333132119
1761035248.2627006,stonefish_ros2/msg/DVL,0.5535445354994216,std_msgs/msg/Header,vehicle/Nucleus_1000_DVL,builtin_interfaces/msg/Time,262642621,1761035248,geometry_msgs/msg/Vector3,0.01961739444228136,-0.1792778667815052,-0.04159000714246852
1761035248.3884654,stonefish_ros2/msg/DVL,0.5534980134228414,std_msgs/msg/Header,vehicle/Nucleus_1000_DVL,builtin_interfaces/msg/Time,388368337,1761035248,geometry_msgs/msg/Vector3,0.03861131560674968,-0.19176791559295722,-0.02002808740487335
1761035248.514021,stonefish_ros2/msg/DVL,0.5621569741988381,std_msgs/msg/Header,vehicle/Nucleus_1000_DVL,builtin_interfaces/msg/Time,513986376,1761035248,geometry_msgs/msg/Vector3,0.01408207528787361,-0.17418568619601985,0.005118184351068285
1761035248.6397417,stonefish_ros2/msg/DVL,0.5456648048561772,std_msgs/msg/Header,vehicle/Nucleus_1000_DVL,builtin_interfaces/msg/Time,639701392,1761035248,geometry_msgs/msg/Vector3,-0.004152487872545152,-0.17927274395659787,-0.00010085474259106768
1761035248.7621047,stonefish_ros2/msg/DVL,0.5481116873203324,std_msgs/msg/Header,vehicle/Nucleus_1000_DVL,builtin_interfaces/msg/Time,762048919,1761035248,geometry_msgs/msg/Vector3,0.027346295296124756,-0.19623020270467195,0.01128735811209933
1761035248.8882477,stonefish_ros2/msg/DVL,0.5709310901407703,std_msgs/msg/Header,vehicle/Nucleus_1000_DVL,builtin_interfaces/msg/Time,887919469,1761035248,geometry_msgs/msg/Vector3,-0.007397761702228141,-0.18079084393471104,0.0005227775295896476
1761035249.0137427,stonefish_ros2/msg/DVL,0.572023423274999,std_msgs/msg/Header,vehicle/Nucleus_1000_DVL,builtin_interfaces/msg/Time,13703623,1761035249,geometry_msgs/msg/Vector3,-0.005348065428170366,-0.2075637228469369,0.001012032687913042
1761035249.1395469,stonefish_ros2/msg/DVL,0.5492083497125433,std_msgs/msg/Header,vehicle/Nucleus_1000_DVL,builtin_interfaces/msg/Time,139501693,1761035249,geometry_msgs/msg/Vector3,-0.00829168962207678,-0.20151080402449364,-0.005348136465333584
1761035249.2619512,stonefish_ros2/msg/DVL,0.5531764187777791,std_msgs/msg/Header,vehicle/Nucleus_1000_DVL,builtin_interfaces/msg/Time,261893915,1761035249,geometry_msgs/msg/Vector3,-0.010560216127870031,-0.20863699594092594,-0.03414189023113441
1761035249.3876536,stonefish_ros2/msg/DVL,0.5456018283021068,std_msgs/msg/Header,vehicle/Nucleus_1000_DVL,builtin_interfaces/msg/Time,387605958,1761035249,geometry_msgs/msg/Vector3,-0.0014391820126530672,-0.20626573665500728,-0.04910352420358269
1761035249.5135431,stonefish_ros2/msg/DVL,0.55794760388037,std_msgs/msg/Header,vehicle/Nucleus_1000_DVL,builtin_interfaces/msg/Time,513490565,1761035249,geometry_msgs/msg/Vector3,0.009660567092423338,-0.20428529013316224,-0.0457773707215998
1761035249.6392493,stonefish_ros2/msg/DVL,0.541919576687356,std_msgs/msg/Header,vehicle/Nucleus_1000_DVL,builtin_interfaces/msg/Time,639212487,1761035249,geometry_msgs/msg/Vector3,0.0052742632820218386,-0.19418720264002803,-0.06042882090296216
1761035249.7614784,stonefish_ros2/msg/DVL,0.5336998591583186,std_msgs/msg/Header,vehicle/Nucleus_1000_DVL,builtin_interfaces/msg/Time,761429115,1761035249,geometry_msgs/msg/Vector3,-0.012532389969968132,-0.18685036383377857,-0.038956447303517244
1761035249.8907194,stonefish_ros2/msg/DVL,0.5221103033863418,std_msgs/msg/Header,vehicle/Nucleus_1000_DVL,builtin_interfaces/msg/Time,890679341,1761035249,geometry_msgs/msg/Vector3,-0.021091454382854327,-0.19103472883392877,-0.07379907628467491
1761035250.0129366,stonefish_ros2/msg/DVL,0.5221956431344348,std_msgs/msg/Header,vehicle/Nucleus_1000_DVL,builtin_interfaces/msg/Time,12884370,1761035250,geometry_msgs/msg/Vector3,0.0022926611862474165,-0.18964809425642318,-0.06682245904323371
1761035250.1385107,stonefish_ros2/msg/DVL,0.5295740731443492,std_msgs/msg/Header,vehicle/Nucleus_1000_DVL,builtin_interfaces/msg/Time,138475753,1761035250,geometry_msgs/msg/Vector3,0.029854704515179513,-0.19857949207156703,-0.03691570844641606
1761035250.2610476,stonefish_ros2/msg/DVL,0.5263002076234623,std_msgs/msg/Header,vehicle/Nucleus_1000_DVL,builtin_interfaces/msg/Time,260965738,1761035250,geometry_msgs/msg/Vector3,0.03493315535307758,-0.17786086578355406,-0.014109356833414547
1761035250.3902006,stonefish_ros2/msg/DVL,0.5269897911238929,std_msgs/msg/Header,vehicle/Nucleus_1000_DVL,builtin_interfaces/msg/Time,390151882,1761035250,geometry_msgs/msg/Vector3,0.03691853200479239,-0.18066104360404292,0.0024218412839750823
1761035250.5126777,stonefish_ros2/msg/DVL,0.5157151599189935,std_msgs/msg/Header,vehicle/Nucleus_1000_DVL,builtin_interfaces/msg/Time,512629368,1761035250,geometry_msgs/msg/Vector3,0.011792906661062537,-0.1641349896227505,0.003868563909005457
1761035250.6385148,stonefish_ros2/msg/DVL,0.5091776537032275,std_msgs/msg/Header,vehicle/Nucleus_1000_DVL,builtin_interfaces/msg/Time,638489722,1761035250,geometry_msgs/msg/Vector3,0.014828754771412617,-0.17676254774320652,-0.016531184356652857
1761035250.7639878,stonefish_ros2/msg/DVL,0.5077856588375963,std_msgs/msg/Header,vehicle/Nucleus_1000_DVL,builtin_interfaces/msg/Time,763953129,1761035250,geometry_msgs/msg/Vector3,-0.017569475394531568,-0.18358656005596283,-0.010737279139286843
1761035250.889589,stonefish_ros2/msg/DVL,0.519507901333605,std_msgs/msg/Header,vehicle/Nucleus_1000_DVL,builtin_interfaces/msg/Time,889549582,1761035250,geometry_msgs/msg/Vector3,-0.014140794686641171,-0.2014144322985606,-0.02497656880583886
1761035251.011842,stonefish_ros2/msg/DVL,0.5010351042733623,std_msgs/msg/Header,vehicle/Nucleus_1000_DVL,builtin_interfaces/msg/Time,11792866,1761035251,geometry_msgs/msg/Vector3,0.021600051541331877,-0.2115094449757304,-0.012115784733744878
1761035251.1375713,stonefish_ros2/msg/DVL,0.5220867106303808,std_msgs/msg/Header,vehicle/Nucleus_1000_DVL,builtin_interfaces/msg/Time,137532231,1761035251,geometry_msgs/msg/Vector3,0.013532350360945973,-0.22053756044973338,-0.02546963993210851
1761035251.2634284,stonefish_ros2/msg/DVL,0.5030259236749172,std_msgs/msg/Header,vehicle/Nucleus_1000_DVL,builtin_interfaces/msg/Time,263338683,1761035251,geometry_msgs/msg/Vector3,0.02208965229581328,-0.22391546927753606,-0.021462964429558255
1761035251.3890111,stonefish_ros2/msg/DVL,0.49774376050544417,std_msgs/msg/Header,vehicle/Nucleus_1000_DVL,builtin_interfaces/msg/Time,388951062,1761035251,geometry_msgs/msg/Vector3,0.002818239809113674,-0.21411722020612717,-0.04867435741732446
1761035251.5112793,stonefish_ros2/msg/DVL,0.49525987248582454,std_msgs/msg/Header,vehicle/Nucleus_1000_DVL,builtin_interfaces/msg/Time,511240940,1761035251,geometry_msgs/msg/Vector3,0.0017966415943051518,-0.19459486093289452,-0.045029750885691416
1761035251.6403286,stonefish_ros2/msg/DVL,0.4841557017357863,std_msgs/msg/Header,vehicle/Nucleus_1000_DVL,builtin_interfaces/msg/Time,640293406,1761035251,geometry_msgs/msg/Vector3,-0.00223741080753536,-0.18964195900513156,-0.02471308127519737
1761035251.7626214,stonefish_ros2/msg/DVL,0.49746092286678506,std_msgs/msg/Header,vehicle/Nucleus_1000_DVL,builtin_interfaces/msg/Time,762587965,1761035251,geometry_msgs/msg/Vector3,-0.012679928801704503,-0.20581654306801023,-0.02890560262567387
1761035251.8884728,stonefish_ros2/msg/DVL,0.46313500629592996,std_msgs/msg/Header,vehicle/Nucleus_1000_DVL,builtin_interfaces/msg/Time,888060358,1761035251,geometry_msgs/msg/Vector3,-0.030095786822120885,-0.19744836424820034,-0.0212244095914406
1761035252.0134954,stonefish_ros2/msg/DVL,0.46304973095267166,std_msgs/msg/Header,vehicle/Nucleus_1000_DVL,builtin_interfaces/msg/Time,13428226,1761035252,geometry_msgs/msg/Vector3,-0.034787971587569806,-0.20450108197296632,-0.011364285941826388
1761035252.139106,stonefish_ros2/msg/DVL,0.4872749518594266,std_msgs/msg/Header,vehicle/Nucleus_1000_DVL,builtin_interfaces/msg/Time,139053342,1761035252,geometry_msgs/msg/Vector3,-0.017925352154180514,-0.2161620469140439,-0.012582719243629002
1761035252.261376,stonefish_ros2/msg/DVL,0.47760990796053526,std_msgs/msg/Header,vehicle/Nucleus_1000_DVL,builtin_interfaces/msg/Time,261351866,1761035252,geometry_msgs/msg/Vector3,-0.011766627294475003,-0.21028497121768294,0.0023701232451185826
1761035252.3904514,stonefish_ros2/msg/DVL,0.47765998104856894,std_msgs/msg/Header,vehicle/Nucleus_1000_DVL,builtin_interfaces/msg/Time,390284042,1761035252,geometry_msgs/msg/Vector3,-0.041648460940057475,-0.22766651955544037,0.009704926446026963
1761035252.51283,stonefish_ros2/msg/DVL,0.4855947277164145,std_msgs/msg/Header,vehicle/Nucleus_1000_DVL,builtin_interfaces/msg/Time,512751001,1761035252,geometry_msgs/msg/Vector3,-0.042791119766212075,-0.19337330025765806,0.01036141159008294
1761035252.6382687,stonefish_ros2/msg/DVL,0.4913296589230388,std_msgs/msg/Header,vehicle/Nucleus_1000_DVL,builtin_interfaces/msg/Time,638236761,1761035252,geometry_msgs/msg/Vector3,-0.047783850600672265,-0.232520298324003,-0.008226592157710778
1761035252.7637687,stonefish_ros2/msg/DVL,0.4926586871571852,std_msgs/msg/Header,vehicle/Nucleus_1000_DVL,builtin_interfaces/msg/Time,763692091,1761035252,geometry_msgs/msg/Vector3,-0.028123353688836367,-0.22060036864181817,0.008351029594600592
1761035252.8895338,stonefish_ros2/msg/DVL,0.48653600997474605,std_msgs/msg/Header,vehicle/Nucleus_1000_DVL,builtin_interfaces/msg/Time,889497781,1761035252,geometry_msgs/msg/Vector3,0.002938070476086127,-0.23038778599100898,0.01501449238777121
1761035253.011831,stonefish_ros2/msg/DVL,0.4826394332002629,std_msgs/msg/Header,vehicle/Nucleus_1000_DVL,builtin_interfaces/msg/Time,11787416,1761035253,geometry_msgs/msg/Vector3,0.024755427463044488,-0.2298114409159632,0.014021168770934202
1761035253.137273,stonefish_ros2/msg/DVL,0.47750341856438844,std_msgs/msg/Header,vehicle/Nucleus_1000_DVL,builtin_interfaces/msg/Time,137250832,1761035253,geometry_msgs/msg/Vector3,-0.001222152547598868,-0.2184079722819741,-0.002891127063387387
1761035253.2629228,stonefish_ros2/msg/DVL,0.4905189613288111,std_msgs/msg/Header,vehicle/Nucleus_1000_DVL,builtin_interfaces/msg/Time,262870075,1761035253,geometry_msgs/msg/Vector3,-0.003934368218918888,-0.21481348665538647,-0.012342774390208516
1761035253.3888276,stonefish_ros2/msg/DVL,0.4854455107711389,std_msgs/msg/Header,vehicle/Nucleus_1000_DVL,builtin_interfaces/msg/Time,388411509,1761035253,geometry_msgs/msg/Vector3,0.011824638386839984,-0.1983761453966298,-0.008655192627417626
1761035253.5106854,stonefish_ros2/msg/DVL,0.4628840929471195,std_msgs/msg/Header,vehicle/Nucleus_1000_DVL,builtin_interfaces/msg/Time,510612073,1761035253,geometry_msgs/msg/Vector3,0.012171067886991072,-0.18324293337001224,-0.011011579825701544
1761035253.6395721,stonefish_ros2/msg/DVL,0.47075483274697605,std_msgs/msg/Header,vehicle/Nucleus_1000_DVL,builtin_interfaces/msg/Time,639546546,1761035253,geometry_msgs/msg/Vector3,0.001329554132064665,-0.16867860018312328,-0.011098142804155048
1761035253.7614968,stonefish_ros2/msg/DVL,0.4653206370612405,std_msgs/msg/Header,vehicle/Nucleus_1000_DVL,builtin_interfaces/msg/Time,761467609,1761035253,geometry_msgs/msg/Vector3,0.012708488029254039,-0.15648424786410473,-0.0003870351286492037
1761035253.8883035,stonefish_ros2/msg/DVL,0.47251583290433685,std_msgs/msg/Header,vehicle/Nucleus_1000_DVL,builtin_interfaces/msg/Time,887169557,1761035253,geometry_msgs/msg/Vector3,0.034034669434275716,-0.17826405481727076,0.014170105817995143
1761035254.0127213,stonefish_ros2/msg/DVL,0.4942069696029607,std_msgs/msg/Header,vehicle/Nucleus_1000_DVL,builtin_interfaces/msg/Time,12652324,1761035254,geometry_msgs/msg/Vector3,0.020634235435852022,-0.1802851141943672,-0.0087758218613842
1761035254.1381366,stonefish_ros2/msg/DVL,0.4741600828354948,std_msgs/msg/Header,vehicle/Nucleus_1000_DVL,builtin_interfaces/msg/Time,138066349,1761035254,geometry_msgs/msg/Vector3,0.021036361203015295,-0.17466216868403617,0.0011627697824947835
1761035254.2636359,stonefish_ros2/msg/DVL,0.48444909963270266,std_msgs/msg/Header,vehicle/Nucleus_1000_DVL,builtin_interfaces/msg/Time,263586060,1761035254,geometry_msgs/msg/Vector3,0.021993385633545477,-0.20434043132437948,-0.025304579804068632
1761035254.389553,stonefish_ros2/msg/DVL,0.4926961851123808,std_msgs/msg/Header,vehicle/Nucleus_1000_DVL,builtin_interfaces/msg/Time,389483240,1761035254,geometry_msgs/msg/Vector3,0.02102626093670622,-0.19845874401857375,-0.01766120372435198
1761035254.5115314,stonefish_ros2/msg/DVL,0.4758154457255938,std_msgs/msg/Header,vehicle/Nucleus_1000_DVL,builtin_interfaces/msg/Time,511481817,1761035254,geometry_msgs/msg/Vector3,0.028394720163173563,-0.1948235377682945,-0.02976763756286309
1761035254.63708,stonefish_ros2/msg/DVL,0.4637633941195945,std_msgs/msg/Header,vehicle/Nucleus_1000_DVL,builtin_interfaces/msg/Time,637043087,1761035254,geometry_msgs/msg/Vector3,0.016896006481343793,-0.20846252301924634,-0.010637269341380061
1761035254.7628088,stonefish_ros2/msg/DVL,0.47462728353351213,std_msgs/msg/Header,vehicle/Nucleus_1000_DVL,builtin_interfaces/msg/Time,762767242,1761035254,geometry_msgs/msg/Vector3,0.0038575159102321845,-0.20218808906651517,-0.013061452155951978
1761035254.8887012,stonefish_ros2/msg/DVL,0.483449643241352,std_msgs/msg/Header,vehicle/Nucleus_1000_DVL,builtin_interfaces/msg/Time,888661032,1761035254,geometry_msgs/msg/Vector3,-0.011022612557847082,-0.19844921338954732,-0.018554512080474376
1761035255.011053,stonefish_ros2/msg/DVL,0.4765403392718318,std_msgs/msg/Header,vehicle/Nucleus_1000_DVL,builtin_interfaces/msg/Time,11021698,1761035255,geometry_msgs/msg/Vector3,-0.030174716819465715,-0.2044091627938288,-0.02051103711270884
1761035255.1399488,stonefish_ros2/msg/DVL,0.4859368717106891,std_msgs/msg/Header,vehicle/Nucleus_1000_DVL,builtin_interfaces/msg/Time,139917926,1761035255,geometry_msgs/msg/Vector3,-0.010978449984038357,-0.20744623986315902,-0.03638001185616062
1761035255.2657359,stonefish_ros2/msg/DVL,0.4626946114826985,std_msgs/msg/Header,vehicle/Nucleus_1000_DVL,builtin_interfaces/msg/Time,265687575,1761035255,geometry_msgs/msg/Vector3,-0.004682207027237071,-0.19334839813627863,-0.003976033836075532
1761035255.3878307,stonefish_ros2/msg/DVL,0.45129099685415835,std_msgs/msg/Header,vehicle/Nucleus_1000_DVL,builtin_interfaces/msg/Time,387806914,1761035255,geometry_msgs/msg/Vector3,-0.012906056455895728,-0.21674174317586098,-0.015756614836929313
1761035255.5165603,stonefish_ros2/msg/DVL,0.47220698231095715,std_msgs/msg/Header,vehicle/Nucleus_1000_DVL,builtin_interfaces/msg/Time,516492338,1761035255,geometry_msgs/msg/Vector3,0.015770297577719555,-0.19953622337406754,-0.016834625942872578
1761035255.6386366,stonefish_ros2/msg/DVL,0.4716355476920487,std_msgs/msg/Header,vehicle/Nucleus_1000_DVL,builtin_interfaces/msg/Time,638569339,1761035255,geometry_msgs/msg/Vector3,0.0074180029677729156,-0.2276657412507831,-0.0030786292463515553
1761035255.7639334,stonefish_ros2/msg/DVL,0.4704541985954427,std_msgs/msg/Header,vehicle/Nucleus_1000_DVL,builtin_interfaces/msg/Time,763874344,1761035255,geometry_msgs/msg/Vector3,0.02338856305249179,-0.213229618852201,-0.008971470607798938
1761035255.8897336,stonefish_ros2/msg/DVL,0.4556913500259559,std_msgs/msg/Header,vehicle/Nucleus_1000_DVL,builtin_interfaces/msg/Time,889707932,1761035255,geometry_msgs/msg/Vector3,0.026792296523151342,-0.1846566492597704,0.005222035502645746
1761035256.0154817,stonefish_ros2/msg/DVL,0.47284032193811887,std_msgs/msg/Header,vehicle/Nucleus_1000_DVL,builtin_interfaces/msg/Time,15436024,1761035256,geometry_msgs/msg/Vector3,0.04115175855782408,-0.1718611806245835,0.001221384951008244
1761035256.1379404,stonefish_ros2/msg/DVL,0.47415131786219017,std_msgs/msg/Header,vehicle/Nucleus_1000_DVL,builtin_interfaces/msg/Time,137914898,1761035256,geometry_msgs/msg/Vector3,0.03775425657376197,-0.16257092801531917,-0.005597088909069841
1761035256.2638013,stonefish_ros2/msg/DVL,0.47400366813595457,std_msgs/msg/Header,vehicle/Nucleus_1000_DVL,builtin_interfaces/msg/Time,263729722,1761035256,geometry_msgs/msg/Vector3,0.011587554491642914,-0.16120495170764615,-0.024789371901701183
1761035256.389452,stonefish_ros2/msg/DVL,0.4640396642449139,std_msgs/msg/Header,vehicle/Nucleus_1000_DVL,builtin_interfaces/msg/Time,389397732,1761035256,geometry_msgs/msg/Vector3,0.015905564409569386,-0.17160284492027433,-0.02324068611523845
1761035256.5151875,stonefish_ros2/msg/DVL,0.46509629715984285,std_msgs/msg/Header,vehicle/Nucleus_1000_DVL,builtin_interfaces/msg/Time,515113230,1761035256,geometry_msgs/msg/Vector3,-0.022734843837181305,-0.1499720656258877,-0.03564365465034022
1761035256.6375477,stonefish_ros2/msg/DVL,0.45595315710768775,std_msgs/msg/Header,vehicle/Nucleus_1000_DVL,builtin_interfaces/msg/Time,637503726,1761035256,geometry_msgs/msg/Vector3,-0.008131161700324189,-0.16197889485301376,-0.015339478803547572
1761035256.7663832,stonefish_ros2/msg/DVL,0.46503882908673244,std_msgs/msg/Header,vehicle/Nucleus_1000_DVL,builtin_interfaces/msg/Time,766331753,1761035256,geometry_msgs/msg/Vector3,-0.006956903146207581,-0.1631460815578293,-0.03698832799643472
1761035256.8885894,stonefish_ros2/msg/DVL,0.4623589544021375,std_msgs/msg/Header,vehicle/Nucleus_1000_DVL,builtin_interfaces/msg/Time,888560804,1761035256,geometry_msgs/msg/Vector3,-0.02062500869964728,-0.1764481025088082,-0.012558599291571403
1761035257.014388,stonefish_ros2/msg/DVL,0.4597023051297963,std_msgs/msg/Header,vehicle/Nucleus_1000_DVL,builtin_interfaces/msg/Time,14340141,1761035257,geometry_msgs/msg/Vector3,-0.027323544061653767,-0.1894461397185404,-0.03610785154046882
1761035257.1368694,stonefish_ros2/msg/DVL,0.45441002191355984,std_msgs/msg/Header,vehicle/Nucleus_1000_DVL,builtin_interfaces/msg/Time,136825750,1761035257,geometry_msgs/msg/Vector3,-0.025927671513154324,-0.20574467680152358,-0.02941188829490283
1761035257.2661242,stonefish_ros2/msg/DVL,0.44232030270918865,std_msgs/msg/Header,vehicle/Nucleus_1000_DVL,builtin_interfaces/msg/Time,266086289,1761035257,geometry_msgs/msg/Vector3,-0.04786462763773967,-0.21786083336596077,-0.01504267240163911
1761035257.388465,stonefish_ros2/msg/DVL,0.44933050875797526,std_msgs/msg/Header,vehicle/Nucleus_1000_DVL,builtin_interfaces/msg/Time,388427464,1761035257,geometry_msgs/msg/Vector3,-0.04124753603278485,-0.22317434721147927,-0.04794900588991148
1761035257.5139697,stonefish_ros2/msg/DVL,0.44396392916463934,std_msgs/msg/Header,vehicle/Nucleus_1000_DVL,builtin_interfaces/msg/Time,513943465,1761035257,geometry_msgs/msg/Vector3,-0.04460274713664092,-0.23893050486123923,-0.029853017587706566
1761035257.6398108,stonefish_ros2/msg/DVL,0.4457299631549548,std_msgs/msg/Header,vehicle/Nucleus_1000_DVL,builtin_interfaces/msg/Time,639777645,1761035257,geometry_msgs/msg/Vector3,-0.041315066103242926,-0.2541182674086848,-0.02657828156788544
1761035257.765425,stonefish_ros2/msg/DVL,0.440954702081259,std_msgs/msg/Header,vehicle/Nucleus_1000_DVL,builtin_interfaces/msg/Time,765386193,1761035257,geometry_msgs/msg/Vector3,-0.016895672672551553,-0.24173514275080196,-0.03909646907353827
1761035257.8878293,stonefish_ros2/msg/DVL,0.43219916239478245,std_msgs/msg/Header,vehicle/Nucleus_1000_DVL,builtin_interfaces/msg/Time,887787555,1761035257,geometry_msgs/msg/Vector3,-0.0113957947006539,-0.24801703986425871,-0.0027192624418342186
1761035258.0135593,stonefish_ros2/msg/DVL,0.4300127345167243,std_msgs/msg/Header,vehicle/Nucleus_1000_DVL,builtin_interfaces/msg/Time,13512990,1761035258,geometry_msgs/msg/Vector3,0.007847525596469864,-0.2234844201039748,0.0009480164954141692
1761035258.1393423,stonefish_ros2/msg/DVL,0.4357566061873883,std_msgs/msg/Header,vehicle/Nucleus_1000_DVL,builtin_interfaces/msg/Time,139295379,1761035258,geometry_msgs/msg/Vector3,0.017504025602491088,-0.21509671489943646,-0.02940478442920011
1761035258.264862,stonefish_ros2/msg/DVL,0.41464317912173115,std_msgs/msg/Header,vehicle/Nucleus_1000_DVL,builtin_interfaces/msg/Time,264827206,1761035258,geometry_msgs/msg/Vector3,0.00396295285817919,-0.1967803626594503,-0.00043715041775550106
1761035258.388516,stonefish_ros2/msg/DVL,0.4385240732788075,std_msgs/msg/Header,vehicle/Nucleus_1000_DVL,builtin_interfaces/msg/Time,387265694,1761035258,geometry_msgs/msg/Vector3,0.014580082879164114,-0.163759519174627,-0.006382736405031878
1761035258.5165775,stonefish_ros2/msg/DVL,0.4047410782349753,std_msgs/msg/Header,vehicle/Nucleus_1000_DVL,builtin_interfaces/msg/Time,516502180,1761035258,geometry_msgs/msg/Vector3,0.02515039808380798,-0.17579836963570772,-0.01504989051147564
1761035258.6390338,stonefish_ros2/msg/DVL,0.41606220356857454,std_msgs/msg/Header,vehicle/Nucleus_1000_DVL,builtin_interfaces/msg/Time,638986467,1761035258,geometry_msgs/msg/Vector3,0.028836246446847513,-0.17661446476161918,-0.012876411997256608
1761035258.764867,stonefish_ros2/msg/DVL,0.4246477135512065,std_msgs/msg/Header,vehicle/Nucleus_1000_DVL,builtin_interfaces/msg/Time,764840493,1761035258,geometry_msgs/msg/Vector3,0.017634403413655422,-0.17741717426788908,-0.0032136416902983854
1761035258.8873403,stonefish_ros2/msg/DVL,0.4183513788225486,std_msgs/msg/Header,vehicle/Nucleus_1000_DVL,builtin_interfaces/msg/Time,887294220,1761035258,geometry_msgs/msg/Vector3,0.013016036069439253,-0.15966650646204447,0.0010968124138506217
1761035259.013199,stonefish_ros2/msg/DVL,0.41545759726314035,std_msgs/msg/Header,vehicle/Nucleus_1000_DVL,builtin_interfaces/msg/Time,13159097,1761035259,geometry_msgs/msg/Vector3,0.0030799581562351796,-0.1771136776367018,-0.0034629286232010876
1761035259.1388073,stonefish_ros2/msg/DVL,0.43403498639889637,std_msgs/msg/Header,vehicle/Nucleus_1000_DVL,builtin_interfaces/msg/Time,138766228,1761035259,geometry_msgs/msg/Vector3,-0.016839729532830583,-0.18328348665613334,0.0032692790817020105
1761035259.264514,stonefish_ros2/msg/DVL,0.4098527408544399,std_msgs/msg/Header,vehicle/Nucleus_1000_DVL,builtin_interfaces/msg/Time,264473725,1761035259,geometry_msgs/msg/Vector3,-0.022021759864532912,-0.17967211516870424,0.012713077091151003
1761035259.386944,stonefish_ros2/msg/DVL,0.43760656785443197,std_msgs/msg/Header,vehicle/Nucleus_1000_DVL,builtin_interfaces/msg/Time,386892820,1761035259,geometry_msgs/msg/Vector3,-0.039253054791659386,-0.2164883796214537,-0.016888670492515943
1761035259.5159557,stonefish_ros2/msg/DVL,0.41107319759181954,std_msgs/msg/Header,vehicle/Nucleus_1000_DVL,builtin_interfaces/msg/Time,515887850,1761035259,geometry_msgs/msg/Vector3,-0.027495359783899147,-0.21856642239085025,-0.02876289620706554
1761035259.638391,stonefish_ros2/msg/DVL,0.40376860114569113,std_msgs/msg/Header,vehicle/Nucleus_1000_DVL,builtin_interfaces/msg/Time,638357163,1761035259,geometry_msgs/msg/Vector3,-0.04215724854540035,-0.21306042216402699,-0.018153744051105838
1761035259.7642083,stonefish_ros2/msg/DVL,0.4283008604990577,std_msgs/msg/Header,vehicle/Nucleus_1000_DVL,builtin_interfaces/msg/Time,764153527,1761035259,geometry_msgs/msg/Vector3,-0.018749772667259273,-0.2177319976145789,-0.03535318308925236
1761035259.8886974,stonefish_ros2/msg/DVL,0.40729280817300295,std_msgs/msg/Header,vehicle/Nucleus_1000_DVL,builtin_interfaces/msg/Time,886552742,1761035259,geometry_msgs/msg/Vector3,0.0019643805227654845,-0.2043454137806686,-0.03305047705528246
1761035260.0157888,stonefish_ros2/msg/DVL,0.4122893994045081,std_msgs/msg/Header,vehicle/Nucleus_1000_DVL,builtin_interfaces/msg/Time,15729837,1761035260,geometry_msgs/msg/Vector3,0.004169130193512283,-0.2154317468998183,-0.013574949140200744
1761035260.1377223,stonefish_ros2/msg/DVL,0.4019156562770565,std_msgs/msg/Header,vehicle/Nucleus_1000_DVL,builtin_interfaces/msg/Time,137681823,1761035260,geometry_msgs/msg/Vector3,0.007758789522709586,-0.219319558328405,-0.00870708964440554
1761035260.2634678,stonefish_ros2/msg/DVL,0.41334829914532567,std_msgs/msg/Header,vehicle/Nucleus_1000_DVL,builtin_interfaces/msg/Time,263422866,1761035260,geometry_msgs/msg/Vector3,-0.0009352763550650577,-0.22460736756949692,-0.00708109614699173
1761035260.389378,stonefish_ros2/msg/DVL,0.3963870449270962,std_msgs/msg/Header,vehicle/Nucleus_1000_DVL,builtin_interfaces/msg/Time,389330384,1761035260,geometry_msgs/msg/Vector3,-0.015711884365379618,-0.2322593889629916,0.008285238602105059
1761035260.515211,stonefish_ros2/msg/DVL,0.4206262749055961,std_msgs/msg/Header,vehicle/Nucleus_1000_DVL,builtin_interfaces/msg/Time,515171383,1761035260,geometry_msgs/msg/Vector3,-0.003790523240812497,-0.20910184017415145,0.029419663328368036
1761035260.6375508,stonefish_ros2/msg/DVL,0.4060030565227991,std_msgs/msg/Header,vehicle/Nucleus_1000_DVL,builtin_interfaces/msg/Time,637526976,1761035260,geometry_msgs/msg/Vector3,0.02725393880282519,-0.20480702046251037,0.006973532292416211
1761035260.7630255,stonefish_ros2/msg/DVL,0.4178184430681273,std_msgs/msg/Header,vehicle/Nucleus_1000_DVL,builtin_interfaces/msg/Time,763001788,1761035260,geometry_msgs/msg/Vector3,0.017701272931151077,-0.17962085083608065,0.013029314344605657
1761035260.8887477,stonefish_ros2/msg/DVL,0.41590619655995287,std_msgs/msg/Header,vehicle/Nucleus_1000_DVL,builtin_interfaces/msg/Time,888695612,1761035260,geometry_msgs/msg/Vector3,0.024267881365943697,-0.1815002929191986,0.024326864212969375
1761035261.0144897,stonefish_ros2/msg/DVL,0.41669398910510363,std_msgs/msg/Header,vehicle/Nucleus_1000_DVL,builtin_interfaces/msg/Time,14419526,1761035261,geometry_msgs/msg/Vector3,0.018271640499535474,-0.18765285530817546,0.0160038505157482
1761035261.1369288,stonefish_ros2/msg/DVL,0.4093271681060462,std_msgs/msg/Header,vehicle/Nucleus_1000_DVL,builtin_interfaces/msg/Time,136893442,1761035261,geometry_msgs/msg/Vector3,0.01772400388890196,-0.18779174459390247,0.03556925013351065
1761035261.2659745,stonefish_ros2/msg/DVL,0.4186514173595412,std_msgs/msg/Header,vehicle/Nucleus_1000_DVL,builtin_interfaces/msg/Time,265923045,1761035261,geometry_msgs/msg/Vector3,0.022787081562796654,-0.20306340650349533,0.04742199026711642
1761035261.3883128,stonefish_ros2/msg/DVL,0.4145773089375839,std_msgs/msg/Header,vehicle/Nucleus_1000_DVL,builtin_interfaces/msg/Time,388247815,1761035261,geometry_msgs/msg/Vector3,-0.011604433594445785,-0.2191648385157353,0.0393731192911969
1761035261.5138295,stonefish_ros2/msg/DVL,0.42328517554355827,std_msgs/msg/Header,vehicle/Nucleus_1000_DVL,builtin_interfaces/msg/Time,513775211,1761035261,geometry_msgs/msg/Vector3,-0.022527349893028695,-0.2281620289006629,0.01954914802828589
1761035261.639582,stonefish_ros2/msg/DVL,0.4416040059221042,std_msgs/msg/Header,vehicle/Nucleus_1000_DVL,builtin_interfaces/msg/Time,639520630,1761035261,geometry_msgs/msg/Vector3,-0.028295167577050195,-0.19456538581619437,-0.002960090617688956
1761035261.765288,stonefish_ros2/msg/DVL,0.4279308090995475,std_msgs/msg/Header,vehicle/Nucleus_1000_DVL,builtin_interfaces/msg/Time,765190132,1761035261,geometry_msgs/msg/Vector3,-0.025736639232102586,-0.21576976791265035,0.008904625342155848
1761035261.8879573,stonefish_ros2/msg/DVL,0.4279583380316967,std_msgs/msg/Header,vehicle/Nucleus_1000_DVL,builtin_interfaces/msg/Time,887338767,1761035261,geometry_msgs/msg/Vector3,-0.032909730962384566,-0.22314948982618876,-0.008264828166699965
1761035262.0129883,stonefish_ros2/msg/DVL,0.43039909199576376,std_msgs/msg/Header,vehicle/Nucleus_1000_DVL,builtin_interfaces/msg/Time,12949082,1761035262,geometry_msgs/msg/Vector3,-0.0387676197957139,-0.2348687897396582,-0.01668909585741491
1761035262.1388137,stonefish_ros2/msg/DVL,0.42203562381701965,std_msgs/msg/Header,vehicle/Nucleus_1000_DVL,builtin_interfaces/msg/Time,138778035,1761035262,geometry_msgs/msg/Vector3,-0.024247659366757386,-0.21840601720226946,-0.01150866588487419
1761035262.26433,stonefish_ros2/msg/DVL,0.4343409669956696,std_msgs/msg/Header,vehicle/Nucleus_1000_DVL,builtin_interfaces/msg/Time,264261259,1761035262,geometry_msgs/msg/Vector3,-0.020744740159788586,-0.20477913668356923,-0.016277777938288836
1761035262.3886938,stonefish_ros2/msg/DVL,0.4212033967833082,std_msgs/msg/Header,vehicle/Nucleus_1000_DVL,builtin_interfaces/msg/Time,386691162,1761035262,geometry_msgs/msg/Vector3,-0.002756743476922012,-0.18712382527197663,-0.017050144619891794
1761035262.5156405,stonefish_ros2/msg/DVL,0.428176987975964,std_msgs/msg/Header,vehicle/Nucleus_1000_DVL,builtin_interfaces/msg/Time,515578746,1761035262,geometry_msgs/msg/Vector3,0.02958431154214884,-0.1538359689781605,0.018895334112529617
1761035262.63781,stonefish_ros2/msg/DVL,0.4219237700016606,std_msgs/msg/Header,vehicle/Nucleus_1000_DVL,builtin_interfaces/msg/Time,637752517,1761035262,geometry_msgs/msg/Vector3,0.056377448512925074,-0.16195958266191088,0.001419791533808348
1761035262.7632802,stonefish_ros2/msg/DVL,0.4160991141781895,std_msgs/msg/Header,vehicle/Nucleus_1000_DVL,builtin_interfaces/msg/Time,763211572,1761035262,geometry_msgs/msg/Vector3,0.03637606771412974,-0.18392759920891802,-0.0052047853470147554
1761035262.8891497,stonefish_ros2/msg/DVL,0.41847886737079787,std_msgs/msg/Header,vehicle/Nucleus_1000_DVL,builtin_interfaces/msg/Time,889112202,1761035262,geometry_msgs/msg/Vector3,0.04585046666767911,-0.17331046263046254,0.010540588275723371
1761035263.0148954,stonefish_ros2/msg/DVL,0.42539496550999,std_msgs/msg/Header,vehicle/Nucleus_1000_DVL,builtin_interfaces/msg/Time,14855079,1761035263,geometry_msgs/msg/Vector3,0.024406669544433553,-0.15223421785573205,0.0181502789207545
1761035263.1369257,stonefish_ros2/msg/DVL,0.4175359496427368,std_msgs/msg/Header,vehicle/Nucleus_1000_DVL,builtin_interfaces/msg/Time,136901230,1761035263,geometry_msgs/msg/Vector3,0.05102918788578538,-0.19329568652397483,0.01809515973375113
1761035263.2661133,stonefish_ros2/msg/DVL,0.4410774703476449,std_msgs/msg/Header,vehicle/Nucleus_1000_DVL,builtin_interfaces/msg/Time,266058502,1761035263,geometry_msgs/msg/Vector3,0.013148749038898115,-0.1790548060014817,0.014731635469300428
1761035263.3881528,stonefish_ros2/msg/DVL,0.4464747792849937,std_msgs/msg/Header,vehicle/Nucleus_1000_DVL,builtin_interfaces/msg/Time,388125173,1761035263,geometry_msgs/msg/Vector3,0.017019918389966294,-0.17057684673786028,0.007968216746528787
1761035263.5136156,stonefish_ros2/msg/DVL,0.4337851602580065,std_msgs/msg/Header,vehicle/Nucleus_1000_DVL,builtin_interfaces/msg/Time,513534775,1761035263,geometry_msgs/msg/Vector3,0.0223881628184233,-0.17763029997597166,0.014626574395831168
1761035263.6392934,stonefish_ros2/msg/DVL,0.4518456559046105,std_msgs/msg/Header,vehicle/Nucleus_1000_DVL,builtin_interfaces/msg/Time,639258278,1761035263,geometry_msgs/msg/Vector3,-0.001961370116995738,-0.19392681927989328,0.011513535780286546
1761035263.7647624,stonefish_ros2/msg/DVL,0.4394348519140141,std_msgs/msg/Header,vehicle/Nucleus_1000_DVL,builtin_interfaces/msg/Time,764725589,1761035263,geometry_msgs/msg/Vector3,-0.0007335083345824962,-0.21205322796024229,0.02397672541447039
1761035263.886955,stonefish_ros2/msg/DVL,0.42795830167306415,std_msgs/msg/Header,vehicle/Nucleus_1000_DVL,builtin_interfaces/msg/Time,886926676,1761035263,geometry_msgs/msg/Vector3,-0.021240349562493918,-0.20083794439392855,0.004810067230294401
1761035264.0127409,stonefish_ros2/msg/DVL,0.4501067252297418,std_msgs/msg/Header,vehicle/Nucleus_1000_DVL,builtin_interfaces/msg/Time,12700847,1761035264,geometry_msgs/msg/Vector3,-0.038118787973402464,-0.22429511666115132,-0.005019724628241976
1761035264.138606,stonefish_ros2/msg/DVL,0.4547420171503237,std_msgs/msg/Header,vehicle/Nucleus_1000_DVL,builtin_interfaces/msg/Time,138567222,1761035264,geometry_msgs/msg/Vector3,-0.028170194265493338,-0.21836393899476986,-0.011259784844702284
1761035264.2644067,stonefish_ros2/msg/DVL,0.4539360468174255,std_msgs/msg/Header,vehicle/Nucleus_1000_DVL,builtin_interfaces/msg/Time,264358719,1761035264,geometry_msgs/msg/Vector3,-0.040600101822653424,-0.23262323037084856,-0.014985925066727983
1761035264.386603,stonefish_ros2/msg/DVL,0.46787148012083496,std_msgs/msg/Header,vehicle/Nucleus_1000_DVL,builtin_interfaces/msg/Time,386561651,1761035264,geometry_msgs/msg/Vector3,-0.043917096459125796,-0.2145219968664362,0.003368908208013157
1761035264.5157866,stonefish_ros2/msg/DVL,0.45322305721715406,std_msgs/msg/Header,vehicle/Nucleus_1000_DVL,builtin_interfaces/msg/Time,515740440,1761035264,geometry_msgs/msg/Vector3,-0.007605700069806653,-0.21534013632193863,-0.00036675662052041563
1761035264.63797,stonefish_ros2/msg/DVL,0.4580835388429022,std_msgs/msg/Header,vehicle/Nucleus_1000_DVL,builtin_interfaces/msg/Time,637949252,1761035264,geometry_msgs/msg/Vector3,-0.006289394494264254,-0.183431713149364,0.015666589115437182
1761035264.7636633,stonefish_ros2/msg/DVL,0.4401984347456036,std_msgs/msg/Header,vehicle/Nucleus_1000_DVL,builtin_interfaces/msg/Time,763609603,1761035264,geometry_msgs/msg/Vector3,0.01039030044533075,-0.1916322468217696,0.01480002630011035
1761035264.8893514,stonefish_ros2/msg/DVL,0.44286973428898346,std_msgs/msg/Header,vehicle/Nucleus_1000_DVL,builtin_interfaces/msg/Time,889320213,1761035264,geometry_msgs/msg/Vector3,0.0010848123381237249,-0.2079102839316057,-0.02093298877990684
1761035265.0146568,stonefish_ros2/msg/DVL,0.4549249354416966,std_msgs/msg/Header,vehicle/Nucleus_1000_DVL,builtin_interfaces/msg/Time,14605026,1761035265,geometry_msgs/msg/Vector3,-0.009279887471924061,-0.21545856138557656,-0.018022368802026324
1761035265.136751,stonefish_ros2/msg/DVL,0.45641633912009677,std_msgs/msg/Header,vehicle/Nucleus_1000_DVL,builtin_interfaces/msg/Time,136711058,1761035265,geometry_msgs/msg/Vector3,-0.007296278556043336,-0.235074833122128,-0.02086876913777069
1761035265.26584,stonefish_ros2/msg/DVL,0.45881078472848086,std_msgs/msg/Header,vehicle/Nucleus_1000_DVL,builtin_interfaces/msg/Time,265760417,1761035265,geometry_msgs/msg/Vector3,-0.024025178778627247,-0.21046947066194419,-0.02130807120075325
1761035265.3880498,stonefish_ros2/msg/DVL,0.44367890312149244,std_msgs/msg/Header,vehicle/Nucleus_1000_DVL,builtin_interfaces/msg/Time,388021253,1761035265,geometry_msgs/msg/Vector3,-0.014359025537485689,-0.21830846666726172,-0.022003190743239476
1761035265.5133889,stonefish_ros2/msg/DVL,0.4552372732049649,std_msgs/msg/Header,vehicle/Nucleus_1000_DVL,builtin_interfaces/msg/Time,513333512,1761035265,geometry_msgs/msg/Vector3,0.007135139649848642,-0.18341839633135856,0.0014988667540529006
1761035265.6389904,stonefish_ros2/msg/DVL,0.46602519824713595,std_msgs/msg/Header,vehicle/Nucleus_1000_DVL,builtin_interfaces/msg/Time,638932641,1761035265,geometry_msgs/msg/Vector3,0.02406467380318674,-0.18600196178295533,-0.010271447440963644
1761035265.7646852,stonefish_ros2/msg/DVL,0.44179681021029327,std_msgs/msg/Header,vehicle/Nucleus_1000_DVL,builtin_interfaces/msg/Time,764631528,1761035265,geometry_msgs/msg/Vector3,-0.0021050220312146817,-0.18520943473651716,-0.0026870946934111437
1761035265.886932,stonefish_ros2/msg/DVL,0.45453840665840256,std_msgs/msg/Header,vehicle/Nucleus_1000_DVL,builtin_interfaces/msg/Time,886892495,1761035265,geometry_msgs/msg/Vector3,0.013196193142460046,-0.19287855966104733,-0.003941369574040865
1761035266.012641,stonefish_ros2/msg/DVL,0.4517259737314508,std_msgs/msg/Header,vehicle/Nucleus_1000_DVL,builtin_interfaces/msg/Time,12587102,1761035266,geometry_msgs/msg/Vector3,0.010825178086402147,-0.1614149381948976,0.002892494548855087
1761035266.1383586,stonefish_ros2/msg/DVL,0.45154744225594173,std_msgs/msg/Header,vehicle/Nucleus_1000_DVL,builtin_interfaces/msg/Time,138317443,1761035266,geometry_msgs/msg/Vector3,-0.02094233685573465,-0.18559768226018997,0.0016271249926169788
1761035266.263996,stonefish_ros2/msg/DVL,0.43749926530240973,std_msgs/msg/Header,vehicle/Nucleus_1000_DVL,builtin_interfaces/msg/Time,263944109,1761035266,geometry_msgs/msg/Vector3,0.006600922442207554,-0.1650154919291173,0.024284349261870924
1761035266.388372,stonefish_ros2/msg/DVL,0.4552594696773724,std_msgs/msg/Header,vehicle/Nucleus_1000_DVL,builtin_interfaces/msg/Time,386336097,1761035266,geometry_msgs/msg/Vector3,-0.018615617016800715,-0.19931660870365633,0.0027124757753253757
1761035266.5156846,stonefish_ros2/msg/DVL,0.45606860574081715,std_msgs/msg/Header,vehicle/Nucleus_1000_DVL,builtin_interfaces/msg/Time,515630835,1761035266,geometry_msgs/msg/Vector3,-0.036142830708865994,-0.18582504830166446,-0.006205664033618969
1761035266.6382518,stonefish_ros2/msg/DVL,0.4515722846996985,std_msgs/msg/Header,vehicle/Nucleus_1000_DVL,builtin_interfaces/msg/Time,638206608,1761035266,geometry_msgs/msg/Vector3,-0.02589692088777249,-0.19899871069386157,-0.008950581139416108
1761035266.763736,stonefish_ros2/msg/DVL,0.46779028385224714,std_msgs/msg/Header,vehicle/Nucleus_1000_DVL,builtin_interfaces/msg/Time,763684157,1761035266,geometry_msgs/msg/Vector3,-0.02214473821400869,-0.2199489968387821,-0.04317088763205371
1761035266.8858938,stonefish_ros2/msg/DVL,0.45010974757204775,std_msgs/msg/Header,vehicle/Nucleus_1000_DVL,builtin_interfaces/msg/Time,885823664,1761035266,geometry_msgs/msg/Vector3,-0.031185286338147433,-0.22208635606700086,-0.05334771935054203
1761035267.014911,stonefish_ros2/msg/DVL,0.45780550050399543,std_msgs/msg/Header,vehicle/Nucleus_1000_DVL,builtin_interfaces/msg/Time,14868870,1761035267,geometry_msgs/msg/Vector3,-0.012147693563567565,-0.21726460771517048,-0.0366079264859573
1761035267.1373167,stonefish_ros2/msg/DVL,0.441988324725711,std_msgs/msg/Header,vehicle/Nucleus_1000_DVL,builtin_interfaces/msg/Time,137283805,1761035267,geometry_msgs/msg/Vector3,-0.002894746142177381,-0.20318748872991538,-0.044917925393928866
1761035267.2634609,stonefish_ros2/msg/DVL,0.44734507568558746,std_msgs/msg/Header,vehicle/Nucleus_1000_DVL,builtin_interfaces/msg/Time,263418079,1761035267,geometry_msgs/msg/Vector3,-0.0010212037040834773,-0.18691301444990657,-0.02868136458528469
1761035267.3859603,stonefish_ros2/msg/DVL,0.45408292511347526,std_msgs/msg/Header,vehicle/Nucleus_1000_DVL,builtin_interfaces/msg/Time,385927750,1761035267,geometry_msgs/msg/Vector3,-0.000424357680545346,-0.1776707089838073,-0.02842444977839752
1761035267.5149944,stonefish_ros2/msg/DVL,0.43768568447046025,std_msgs/msg/Header,vehicle/Nucleus_1000_DVL,builtin_interfaces/msg/Time,514922474,1761035267,geometry_msgs/msg/Vector3,-0.007691360475771528,-0.1494278509453181,-0.018642550146321536
1761035267.6373348,stonefish_ros2/msg/DVL,0.43752778145794263,std_msgs/msg/Header,vehicle/Nucleus_1000_DVL,builtin_interfaces/msg/Time,637309799,1761035267,geometry_msgs/msg/Vector3,0.00533925012700892,-0.18398347251203548,-0.03755683279911658
1761035267.762848,stonefish_ros2/msg/DVL,0.42813413484440527,std_msgs/msg/Header,vehicle/Nucleus_1000_DVL,builtin_interfaces/msg/Time,762794895,1761035267,geometry_msgs/msg/Vector3,0.01597766992121321,-0.1707367078143377,-0.011489412448597495
1761035267.8885355,stonefish_ros2/msg/DVL,0.43885387822501615,std_msgs/msg/Header,vehicle/Nucleus_1000_DVL,builtin_interfaces/msg/Time,888502153,1761035267,geometry_msgs/msg/Vector3,0.014465991077565092,-0.17284659441538947,-0.02415567588770276
1761035268.0141828,stonefish_ros2/msg/DVL,0.4347464130239706,std_msgs/msg/Header,vehicle/Nucleus_1000_DVL,builtin_interfaces/msg/Time,14141085,1761035268,geometry_msgs/msg/Vector3,0.025836286812845315,-0.17716481698084008,-0.005221744224159777
1761035268.1364133,stonefish_ros2/msg/DVL,0.4280025870840239,std_msgs/msg/Header,vehicle/Nucleus_1000_DVL,builtin_interfaces/msg/Time,136386891,1761035268,geometry_msgs/msg/Vector3,0.022991160988730167,-0.20750074195854074,-0.005555327716201951
1761035268.2651696,stonefish_ros2/msg/DVL,0.4435975334575573,std_msgs/msg/Header,vehicle/Nucleus_1000_DVL,builtin_interfaces/msg/Time,265140208,1761035268,geometry_msgs/msg/Vector3,0.011764659919152499,-0.20804959554014466,-0.02717253154875889
1761035268.387822,stonefish_ros2/msg/DVL,0.4547543594694766,std_msgs/msg/Header,vehicle/Nucleus_1000_DVL,builtin_interfaces/msg/Time,387784191,1761035268,geometry_msgs/msg/Vector3,0.012448886024791567,-0.21199406348298214,-0.036056747690269196
1761035268.5136385,stonefish_ros2/msg/DVL,0.43477247270222985,std_msgs/msg/Header,vehicle/Nucleus_1000_DVL,builtin_interfaces/msg/Time,513588923,1761035268,geometry_msgs/msg/Vector3,-0.01261050689129389,-0.21699308958669686,-0.0389658095160405
1761035268.6366725,stonefish_ros2/msg/DVL,0.4389675274689905,std_msgs/msg/Header,vehicle/Nucleus_1000_DVL,builtin_interfaces/msg/Time,635971664,1761035268,geometry_msgs/msg/Vector3,0.0032777066153298075,-0.21899201788147685,-0.03605050746892846
1761035268.7652175,stonefish_ros2/msg/DVL,0.42634935555689446,std_msgs/msg/Header,vehicle/Nucleus_1000_DVL,builtin_interfaces/msg/Time,765182207,1761035268,geometry_msgs/msg/Vector3,-0.006731085709491971,-0.20764085114229067,-0.03394573818465466
1761035268.8877013,stonefish_ros2/msg/DVL,0.4185436073309467,std_msgs/msg/Header,vehicle/Nucleus_1000_DVL,builtin_interfaces/msg/Time,887638806,1761035268,geometry_msgs/msg/Vector3,0.006134150104103458,-0.21088171971169634,-0.01760906211277176
