t,__msgtype__,altitude,beams.0.__msgtype__,beams.0.distance,beams.0.id,beams.0.nsd,beams.0.rssi,beams.0.valid,beams.0.velocity,beams.1.__msgtype__,beams.1.distance,beams.1.id,beams.1.nsd,beams.1.rssi,beams.1.valid,beams.1.velocity,beams.2.__msgtype__,beams.2.distance,beams.2.id,beams.2.nsd,beams.2.rssi,beams.2.valid,beams.2.velocity,beams.3.__msgtype__,beams.3.distance,beams.3.id,beams.3.nsd,beams.3.rssi,beams.3.valid,beams.3.velocity,fom,form,header.__msgtype__,header.frame_id,header.stamp.__msgtype__,header.stamp.nanosec,header.stamp.sec,status,time,velocity.__msgtype__,velocity.x,velocity.y,velocity.z,velocity_valid
1724164479.686864,sensors/msg/DVLVelocity,1.0397471189498901,sensors/msg/DVLBeam,1.1682000160217285,0,-93.32601928710938,-49.423458099365234,True,0.008434150367975235,sensors/msg/DVLBeam,1.0501999855041504,1,-94.25871276855469,-49.62125778198242,True,0.022304851561784744,sensors/msg/DVLBeam,1.121000051498413,2,-91.77630615234375,-45.50279998779297,True,0.062015682458877563,sensors/msg/DVLBeam,1.2272000312805176,3,-94.2056655883789,-53.68110656738281,True,0.04399309679865837,0.02063610963523388,json_v3.1,std_msgs/msg/Header,dvl_link,builtin_interfaces/msg/Time,686511278,1724164479,0,111.91272735595703,geometry_msgs/msg/Vector3,0.07022270560264587,-0.029040254652500153,0.035962607711553574,True
1724164479.7916398,sensors/msg/DVLVelocity,1.0397471189498901,sensors/msg/DVLBeam,1.1682000160217285,0,-93.28006744384766,-52.570091247558594,True,0.03226728364825249,sensors/msg/DVLBeam,1.062000036239624,1,-93.78034973144531,-46.229915618896484,True,0.030059384182095528,sensors/msg/DVLBeam,1.1092000007629395,2,-91.96292114257812,-42.108184814453125,True,0.06975359469652176,sensors/msg/DVLBeam,1.2272000312805176,3,-93.33193969726562,-55.108463287353516,True,0.06116170808672905,0.02058570273220539,json_v3.1,std_msgs/msg/Header,dvl_link,builtin_interfaces/msg/Time,790517568,1724164479,0,106.19091796875,geometry_msgs/msg/Vector3,0.06344817578792572,-0.007738332264125347,0.05152089148759842,True
1724164479.8919284,sensors/msg/DVLVelocity,1.0342962741851807,sensors/msg/DVLBeam,1.1564000844955444,0,-93.13714599609375,-52.75682830810547,True,0.06129930540919304,sensors/msg/DVLBeam,1.0501999855041504,1,-94.34033966064453,-52.139564514160156,True,0.04360806941986084,sensors/msg/DVLBeam,1.0974000692367554,2,-91.50665283203125,-44.56755828857422,True,0.07737041264772415,sensors/msg/DVLBeam,1.2390000820159912,3,-93.69608306884766,-51.85614013671875,True,0.08312976360321045,0.02299392968416214,json_v3.1,std_msgs/msg/Header,dvl_link,builtin_interfaces/msg/Time,891248464,1724164479,0,114.01725006103516,geometry_msgs/msg/Vector3,0.05621401220560074,0.020683255046606064,0.07289370894432068,True
1724164480.000077,sensors/msg/DVLVelocity,1.0233944654464722,sensors/msg/DVLBeam,1.1446000337600708,0,-93.02799987792969,-54.89378356933594,True,0.0895073264837265,sensors/msg/DVLBeam,1.0384000539779663,1,-93.9804916381836,-51.49713134765625,True,0.0621456578373909,sensors/msg/DVLBeam,1.0856000185012817,2,-91.29454803466797,-47.02191925048828,True,0.0839649960398674,sensors/msg/DVLBeam,1.2272000312805176,3,-94.51652526855469,-57.608009338378906,True,0.1073208600282669,0.02696985937654972,json_v3.1,std_msgs/msg/Header,dvl_link,builtin_interfaces/msg/Time,998959302,1724164479,0,103.19184875488281,geometry_msgs/msg/Vector3,0.03815791383385658,0.045529529452323914,0.09210937470197678,True
1724164480.0990772,sensors/msg/DVLVelocity,1.0070418119430542,sensors/msg/DVLBeam,1.1092000007629395,0,-92.79288482666016,-59.35980224609375,True,0.11366413533687592,sensors/msg/DVLBeam,1.0384000539779663,1,-93.78135681152344,-53.03083801269531,True,0.08040161430835724,sensors/msg/DVLBeam,1.0738000869750977,2,-91.1673812866211,-51.412452697753906,True,0.0973014384508133,sensors/msg/DVLBeam,1.2036000490188599,3,-94.21812438964844,-53.032257080078125,True,0.13148722052574158,0.03290896117687225,json_v3.1,std_msgs/msg/Header,dvl_link,builtin_interfaces/msg/Time,97730159,1724164480,0,107.88201904296875,geometry_msgs/msg/Vector3,0.032209716737270355,0.0634920671582222,0.11394500732421875,True
1724164480.2000523,sensors/msg/DVLVelocity,0.9961400032043457,sensors/msg/DVLBeam,1.0974000692367554,0,-92.2617416381836,-51.40093231201172,True,0.1259273886680603,sensors/msg/DVLBeam,1.0266000032424927,1,-93.60359954833984,-50.67927551269531,True,0.07381463050842285,sensors/msg/DVLBeam,1.0738000869750977,2,-90.70008087158203,-47.3443489074707,True,0.1191227063536644,sensors/msg/DVLBeam,1.1800000667572021,3,-93.11912536621094,-54.19860076904297,True,0.1498376727104187,0.03706391900777817,json_v3.1,std_msgs/msg/Header,dvl_link,builtin_interfaces/msg/Time,199462413,1724164480,0,111.38105773925781,geometry_msgs/msg/Vector3,0.045581407845020294,0.05758476257324219,0.12820114195346832,True
1724164480.3082952,sensors/msg/DVLVelocity,0.979787290096283,sensors/msg/DVLBeam,1.1092000007629395,0,-91.30123901367188,-51.431251525878906,True,0.14006681740283966,sensors/msg/DVLBeam,1.003000020980835,1,-92.82980346679688,-48.03947067260742,True,0.11331403255462646,sensors/msg/DVLBeam,1.0501999855041504,2,-89.55146789550781,-52.96278762817383,True,0.13677477836608887,sensors/msg/DVLBeam,1.1446000337600708,3,-92.01012420654297,-57.63962936401367,True,0.16390663385391235,0.04016972705721855,json_v3.1,std_msgs/msg/Header,dvl_link,builtin_interfaces/msg/Time,307137012,1724164480,0,107.20157623291016,geometry_msgs/msg/Vector3,0.04455767571926117,0.04949909821152687,0.1496584415435791,True
1724164480.439494,sensors/msg/DVLVelocity,0.9716110229492188,sensors/msg/DVLBeam,1.0974000692367554,0,-92.07540130615234,-49.51988220214844,True,0.14469081163406372,sensors/msg/DVLBeam,0.9912000298500061,1,-93.04480743408203,-51.26071548461914,True,0.12178921699523926,sensors/msg/DVLBeam,1.0384000539779663,2,-90.5184326171875,-47.67958450317383,True,0.15111887454986572,sensors/msg/DVLBeam,1.1446000337600708,3,-92.9688949584961,-52.40123748779297,True,0.17533430457115173,0.04298650100827217,json_v3.1,std_msgs/msg/Header,dvl_link,builtin_interfaces/msg/Time,438783168,1724164480,0,109.90929412841797,geometry_msgs/msg/Vector3,0.055016741156578064,0.04448601230978966,0.1586325466632843,True
1724164480.545651,sensors/msg/DVLVelocity,0.955258309841156,sensors/msg/DVLBeam,1.0501999855041504,0,-92.01246643066406,-52.217185974121094,True,0.14584948122501373,sensors/msg/DVLBeam,0.9794000387191772,1,-92.79133605957031,-45.76169204711914,True,0.12203546613454819,sensors/msg/DVLBeam,1.0501999855041504,2,-90.11795043945312,-48.45893478393555,True,0.1578560620546341,sensors/msg/DVLBeam,1.121000051498413,3,-92.88198852539062,-54.09783172607422,True,0.18138214945793152,0.04464850574731827,json_v3.1,std_msgs/msg/Header,dvl_link,builtin_interfaces/msg/Time,545012235,1724164480,0,108.6008529663086,geometry_msgs/msg/Vector3,0.06521753966808319,0.04441725090146065,0.16530795395374298,True
1724164480.6474447,sensors/msg/DVLVelocity,0.9361801743507385,sensors/msg/DVLBeam,1.0266000032424927,0,-94.4508056640625,-50.8162727355957,True,0.14360441267490387,sensors/msg/DVLBeam,0.9676000475883484,1,-95.02254486083984,-47.38784408569336,True,0.12607990205287933,sensors/msg/DVLBeam,1.0148000717163086,2,-92.8392105102539,-51.62213134765625,True,0.1655016988515854,sensors/msg/DVLBeam,1.1092000007629395,3,-95.03803253173828,-49.40485382080078,True,0.18312925100326538,0.04541582614183426,json_v3.1,std_msgs/msg/Header,dvl_link,builtin_interfaces/msg/Time,646954536,1724164480,0,112.16401672363281,geometry_msgs/msg/Vector3,0.07247383892536163,0.03288757801055908,0.16806715726852417,True
1724164480.752219,sensors/msg/DVLVelocity,0.9252784252166748,sensors/msg/DVLBeam,1.0266000032424927,0,-93.52345275878906,-50.206111907958984,True,0.1284201592206955,sensors/msg/DVLBeam,0.9440000057220459,1,-93.53455352783203,-46.481361389160156,True,0.1299881935119629,sensors/msg/DVLBeam,1.003000020980835,2,-91.45370483398438,-42.10641860961914,True,0.1724499613046646,sensors/msg/DVLBeam,1.0974000692367554,3,-94.11011505126953,-48.69304656982422,True,0.18293024599552155,0.04650994762778282,json_v3.1,std_msgs/msg/Header,dvl_link,builtin_interfaces/msg/Time,751120567,1724164480,0,107.86914825439453,geometry_msgs/msg/Vector3,0.09136664122343063,0.015104612335562706,0.16464625298976898,True
1724164480.8539627,sensors/msg/DVLVelocity,0.9034748673439026,sensors/msg/DVLBeam,1.003000020980835,0,-94.117431640625,-48.1431999206543,True,0.12631507217884064,sensors/msg/DVLBeam,0.9204000234603882,1,-95.0860595703125,-46.76426696777344,True,0.12417082488536835,sensors/msg/DVLBeam,0.9794000387191772,2,-92.7086181640625,-49.18994903564453,True,0.17579223215579987,sensors/msg/DVLBeam,1.0738000869750977,3,-94.10907745361328,-47.6240119934082,True,0.1780366748571396,0.046392589807510376,json_v3.1,std_msgs/msg/Header,dvl_link,builtin_interfaces/msg/Time,852909326,1724164480,0,112.65277862548828,geometry_msgs/msg/Vector3,0.0946386307477951,0.004033349920064211,0.1625111699104309,True
1724164480.957414,sensors/msg/DVLVelocity,0.8843967318534851,sensors/msg/DVLBeam,0.9676000475883484,0,-94.15374755859375,-49.411949157714844,True,0.1253909468650818,sensors/msg/DVLBeam,0.9086000323295593,1,-94.08258819580078,-45.28780746459961,True,0.1212824136018753,sensors/msg/DVLBeam,0.9676000475883484,2,-92.34912109375,-45.88450241088867,True,0.1788996011018753,sensors/msg/DVLBeam,1.0501999855041504,3,-95.22486114501953,-50.3304443359375,True,0.178092360496521,0.04678848013281822,json_v3.1,std_msgs/msg/Header,dvl_link,builtin_interfaces/msg/Time,956658601,1724164480,0,102.81658172607422,geometry_msgs/msg/Vector3,0.09857907146215439,0.0037709202151745558,0.1604263186454773,True
1724164481.0818286,sensors/msg/DVLVelocity,0.8707695007324219,sensors/msg/DVLBeam,0.9794000387191772,0,-92.0946044921875,-52.992706298828125,True,-0.017287151888012886,sensors/msg/DVLBeam,0.8968000411987305,1,-93.11318969726562,-45.79489517211914,True,0.12925994396209717,sensors/msg/DVLBeam,0.932200014591217,2,-89.70065307617188,-50.903236389160156,True,0.18442142009735107,sensors/msg/DVLBeam,1.0266000032424927,3,-92.83868408203125,-49.870994567871094,True,0.17785756289958954,0.04798459634184837,json_v3.1,std_msgs/msg/Header,dvl_link,builtin_interfaces/msg/Time,81331729,1724164481,0,107.43785095214844,geometry_msgs/msg/Vector3,0.10456518083810806,-0.01953131891787052,0.16170963644981384,True
1724164481.185517,sensors/msg/DVLVelocity,0.8516914248466492,sensors/msg/DVLBeam,0.9676000475883484,0,-92.68408966064453,-51.82017517089844,True,0.0950692743062973,sensors/msg/DVLBeam,0.8732000589370728,1,-94.79393005371094,-46.145687103271484,True,0.11513245850801468,sensors/msg/DVLBeam,0.9204000234603882,2,-91.29496002197266,-47.177940368652344,True,0.18691153824329376,sensors/msg/DVLBeam,0.9912000298500061,3,-93.12896728515625,-53.660240173339844,True,0.1740078628063202,0.05156606808304787,json_v3.1,std_msgs/msg/Header,dvl_link,builtin_interfaces/msg/Time,184621095,1724164481,0,111.85264587402344,geometry_msgs/msg/Vector3,0.13926908373832703,-0.028841614723205566,0.1575191468000412,True
1724164481.3148222,sensors/msg/DVLVelocity,0.829887866973877,sensors/msg/DVLBeam,0.9204000234603882,0,-93.2109146118164,-49.91360855102539,True,0.08226410299539566,sensors/msg/DVLBeam,0.8614000082015991,1,-94.22947692871094,-48.35245895385742,True,0.09595976769924164,sensors/msg/DVLBeam,0.9086000323295593,2,-91.07621765136719,-45.13825607299805,True,0.18008121848106384,sensors/msg/DVLBeam,0.9676000475883484,3,-94.83932495117188,-55.47736358642578,True,0.1627059131860733,0.05135499686002731,json_v3.1,std_msgs/msg/Header,dvl_link,builtin_interfaces/msg/Time,313951253,1724164481,0,108.63971710205078,geometry_msgs/msg/Vector3,0.1504860669374466,-0.0293758362531662,0.1416659653186798,True
1724164481.3919325,sensors/msg/DVLVelocity,0.821711540222168,sensors/msg/DVLBeam,0.9086000323295593,0,-93.60517120361328,-47.72151184082031,True,0.06318104267120361,sensors/msg/DVLBeam,0.8496000170707703,1,-94.24855041503906,-50.353790283203125,True,0.08019376546144485,sensors/msg/DVLBeam,0.8850000500679016,2,-91.78170776367188,-45.930416107177734,True,0.16814081370830536,sensors/msg/DVLBeam,0.9794000387191772,3,-93.71560668945312,-47.861045837402344,True,0.15797168016433716,0.05159513279795647,json_v3.1,std_msgs/msg/Header,dvl_link,builtin_interfaces/msg/Time,391319751,1724164481,0,107.77902221679688,geometry_msgs/msg/Vector3,0.16517320275306702,-0.020882265642285347,0.12515296041965485,True
1724164481.5125227,sensors/msg/DVLVelocity,0.813535213470459,sensors/msg/DVLBeam,0.9204000234603882,0,-92.16483306884766,-45.09646987915039,True,0.04163706302642822,sensors/msg/DVLBeam,0.8378000259399414,1,-93.90811157226562,-49.78350830078125,True,0.055036671459674835,sensors/msg/DVLBeam,0.8850000500679016,2,-90.5733642578125,-42.39418029785156,True,0.1563016176223755,sensors/msg/DVLBeam,0.9440000057220459,3,-93.1808853149414,-51.07100296020508,True,0.1419977843761444,0.05295228958129883,json_v3.1,std_msgs/msg/Header,dvl_link,builtin_interfaces/msg/Time,510946035,1724164481,0,108.12091827392578,geometry_msgs/msg/Vector3,0.18414610624313354,-0.025555359199643135,0.10587477684020996,True
1724164481.614927,sensors/msg/DVLVelocity,0.7999079823493958,sensors/msg/DVLBeam,0.8850000500679016,0,-93.3226318359375,-51.569053649902344,True,0.023638714104890823,sensors/msg/DVLBeam,0.8378000259399414,1,-94.41807556152344,-48.14276885986328,True,0.047000229358673096,sensors/msg/DVLBeam,0.8614000082015991,2,-91.56476593017578,-42.93949508666992,True,0.14170806109905243,sensors/msg/DVLBeam,0.9440000057220459,3,-93.74751281738281,-49.544036865234375,True,0.12189878523349762,0.05025067552924156,json_v3.1,std_msgs/msg/Header,dvl_link,builtin_interfaces/msg/Time,613671064,1724164481,0,106.3284912109375,geometry_msgs/msg/Vector3,0.17998892068862915,-0.03747841715812683,0.08898024260997772,True
1724164481.7455852,sensors/msg/DVLVelocity,0.7944570779800415,sensors/msg/DVLBeam,0.8850000500679016,0,-92.69125366210938,-50.80453109741211,True,0.006636657752096653,sensors/msg/DVLBeam,0.8260000348091125,1,-94.08670043945312,-49.196372985839844,True,0.022454828023910522,sensors/msg/DVLBeam,0.8614000082015991,2,-91.07022857666016,-48.32845687866211,True,0.11959386616945267,sensors/msg/DVLBeam,0.932200014591217,3,-93.45183563232422,-52.58958435058594,True,0.111015185713768,0.04985247179865837,json_v3.1,std_msgs/msg/Header,dvl_link,builtin_interfaces/msg/Time,744353294,1724164481,0,109.15398406982422,geometry_msgs/msg/Vector3,0.19317464530467987,-0.01910838484764099,0.07011320441961288,True
1724164481.8456287,sensors/msg/DVLVelocity,0.7862807512283325,sensors/msg/DVLBeam,0.8850000500679016,0,-92.19295501708984,-43.85348129272461,True,-0.003513575065881014,sensors/msg/DVLBeam,0.8024000525474548,1,-93.47835540771484,-58.70042419433594,True,0.0013318434357643127,sensors/msg/DVLBeam,0.8614000082015991,2,-90.4627456665039,-41.40122985839844,True,0.10974214226007462,sensors/msg/DVLBeam,0.9204000234603882,3,-93.56765747070312,-52.27894973754883,True,0.09533008933067322,0.04998165741562843,json_v3.1,std_msgs/msg/Header,dvl_link,builtin_interfaces/msg/Time,845063686,1724164481,0,111.16456604003906,geometry_msgs/msg/Vector3,0.19485165178775787,-0.0226583294570446,0.05398918315768242,True
1724164481.9421675,sensors/msg/DVLVelocity,0.7890061736106873,sensors/msg/DVLBeam,0.8968000411987305,0,-92.21761322021484,-50.63414001464844,True,0.0014487821608781815,sensors/msg/DVLBeam,0.7906000018119812,1,-93.3954086303711,-58.660091400146484,True,-0.006679168436676264,sensors/msg/DVLBeam,0.8614000082015991,2,-90.05834197998047,-42.96650314331055,True,0.09400796890258789,sensors/msg/DVLBeam,0.932200014591217,3,-93.05244445800781,-51.52399444580078,True,0.08606522530317307,0.04554084315896034,json_v3.1,std_msgs/msg/Header,dvl_link,builtin_interfaces/msg/Time,941804885,1724164481,0,107.92732238769531,geometry_msgs/msg/Vector3,0.17812524735927582,-0.014188677072525024,0.04464749991893768,True
1724164482.0389917,sensors/msg/DVLVelocity,0.7862807512283325,sensors/msg/DVLBeam,0.8732000589370728,0,-93.9280014038086,-49.646270751953125,True,-0.008091174066066742,sensors/msg/DVLBeam,0.8024000525474548,1,-95.40084075927734,-45.54117202758789,True,-0.015323569998145103,sensors/msg/DVLBeam,0.8496000170707703,2,-92.4986572265625,-47.4633674621582,True,0.09007911384105682,sensors/msg/DVLBeam,0.9440000057220459,3,-93.86315155029297,-46.07598876953125,True,0.0869830921292305,0.046585313975811005,json_v3.1,std_msgs/msg/Header,dvl_link,builtin_interfaces/msg/Time,38604497,1724164482,0,106.46867370605469,geometry_msgs/msg/Vector3,0.18461036682128906,-0.004219964146614075,0.0413692332804203,True
1724164482.170993,sensors/msg/DVLVelocity,0.7835553288459778,sensors/msg/DVLBeam,0.8732000589370728,0,-93.83524322509766,-47.54670715332031,True,-0.008744828402996063,sensors/msg/DVLBeam,0.8024000525474548,1,-95.36150360107422,-50.97477340698242,True,-0.014646777883172035,sensors/msg/DVLBeam,0.8614000082015991,2,-92.5709457397461,-44.503501892089844,True,0.08165107667446136,sensors/msg/DVLBeam,0.9204000234603882,3,-94.4957275390625,-54.62677001953125,True,0.08073137700557709,0.04255366325378418,json_v3.1,std_msgs/msg/Header,dvl_link,builtin_interfaces/msg/Time,170197010,1724164482,0,111.35029602050781,geometry_msgs/msg/Vector3,0.16589823365211487,0.006437633186578751,0.03746156394481659,True
1724164482.2747188,sensors/msg/DVLVelocity,0.7808298468589783,sensors/msg/DVLBeam,0.8732000589370728,0,-92.00475311279297,-54.022212982177734,True,0.00400521419942379,sensors/msg/DVLBeam,0.7906000018119812,1,-94.12710571289062,-49.2108268737793,True,-0.010278272442519665,sensors/msg/DVLBeam,0.8496000170707703,2,-91.2252197265625,-43.20998001098633,True,0.0788865014910698,sensors/msg/DVLBeam,0.932200014591217,3,-92.76416778564453,-49.37147521972656,True,0.082158662378788,0.038495756685733795,json_v3.1,std_msgs/msg/Header,dvl_link,builtin_interfaces/msg/Time,274177312,1724164482,0,105.29422760009766,geometry_msgs/msg/Vector3,0.14910593628883362,0.019313542172312737,0.04057632014155388,True
1724164482.3810256,sensors/msg/DVLVelocity,0.7808298468589783,sensors/msg/DVLBeam,0.8732000589370728,0,-92.73792266845703,-45.830535888671875,True,0.004177626688033342,sensors/msg/DVLBeam,0.7906000018119812,1,-93.85955810546875,-47.4680061340332,True,0.002476794645190239,sensors/msg/DVLBeam,0.8496000170707703,2,-90.89324951171875,-42.93934631347656,True,0.07689919322729111,sensors/msg/DVLBeam,0.932200014591217,3,-93.3998794555664,-47.9745979309082,True,0.08547448366880417,0.03697687014937401,json_v3.1,std_msgs/msg/Header,dvl_link,builtin_interfaces/msg/Time,379922389,1724164482,0,111.78279113769531,geometry_msgs/msg/Vector3,0.14217844605445862,0.01298433355987072,0.04600507766008377,True
1724164482.4877315,sensors/msg/DVLVelocity,0.775378942489624,sensors/msg/DVLBeam,0.8614000082015991,0,-94.52849578857422,-54.935062408447266,True,0.022224806249141693,sensors/msg/DVLBeam,0.7906000018119812,1,-94.77598571777344,-49.342315673828125,True,-0.0031227795407176018,sensors/msg/DVLBeam,0.8378000259399414,2,-91.87857818603516,-42.89107894897461,True,0.07764250785112381,sensors/msg/DVLBeam,0.932200014591217,3,-94.86834716796875,-48.95427322387695,True,0.0877772718667984,0.03813374415040016,json_v3.1,std_msgs/msg/Header,dvl_link,builtin_interfaces/msg/Time,486610651,1724164482,0,108.79135131835938,geometry_msgs/msg/Vector3,0.14625930786132812,0.020258376374840736,0.04689215496182442,True
1724164482.611951,sensors/msg/DVLVelocity,0.7808298468589783,sensors/msg/DVLBeam,0.8850000500679016,0,-92.86434173583984,-47.12879943847656,True,0.01817614771425724,sensors/msg/DVLBeam,0.7906000018119812,1,-94.83023834228516,-46.729305267333984,True,0.008833929896354675,sensors/msg/DVLBeam,0.8378000259399414,2,-91.70065307617188,-49.705284118652344,True,0.08508012443780899,sensors/msg/DVLBeam,0.932200014591217,3,-93.24037170410156,-49.21376419067383,True,0.08798284828662872,0.036323174834251404,json_v3.1,std_msgs/msg/Header,dvl_link,builtin_interfaces/msg/Time,611376285,1724164482,0,115.39054107666016,geometry_msgs/msg/Vector3,0.13561712205410004,0.007479631341993809,0.052813682705163956,True
1724164482.7314427,sensors/msg/DVLVelocity,0.7726535201072693,sensors/msg/DVLBeam,0.8732000589370728,0,-93.67031860351562,-49.936614990234375,True,0.01731415092945099,sensors/msg/DVLBeam,0.7788000106811523,1,-95.32526397705078,-44.18830871582031,True,0.005891852546483278,sensors/msg/DVLBeam,0.8496000170707703,2,-92.18987274169922,-45.8331413269043,True,0.08322231471538544,sensors/msg/DVLBeam,0.9086000323295593,3,-93.95346069335938,-51.62593460083008,True,0.08625039458274841,0.03496844321489334,json_v3.1,std_msgs/msg/Header,dvl_link,builtin_interfaces/msg/Time,731021404,1724164482,0,108.3586196899414,geometry_msgs/msg/Vector3,0.13113898038864136,0.017087412998080254,0.05125518888235092,True
1724164482.822739,sensors/msg/DVLVelocity,0.775378942489624,sensors/msg/DVLBeam,0.8850000500679016,0,-91.75804138183594,-49.78891372680664,True,0.009496159851551056,sensors/msg/DVLBeam,0.7788000106811523,1,-93.84722900390625,-47.42001724243164,True,0.0022641746327281,sensors/msg/DVLBeam,0.8260000348091125,2,-90.34332275390625,-41.612972259521484,True,0.08149299025535583,sensors/msg/DVLBeam,0.932200014591217,3,-92.06015014648438,-51.38839340209961,True,0.08577956259250641,0.03738341107964516,json_v3.1,std_msgs/msg/Header,dvl_link,builtin_interfaces/msg/Time,821576595,1724164482,0,110.8644027709961,geometry_msgs/msg/Vector3,0.14340795576572418,0.010159418918192387,0.04909784719347954,True
1724164482.925988,sensors/msg/DVLVelocity,0.7617517113685608,sensors/msg/DVLBeam,0.8496000170707703,0,-91.87703704833984,-53.882965087890625,True,0.004884517751634121,sensors/msg/DVLBeam,0.7788000106811523,1,-92.85069274902344,-41.25896072387695,True,-0.012467687018215656,sensors/msg/DVLBeam,0.8378000259399414,2,-90.05060577392578,-41.309837341308594,True,0.08118230104446411,sensors/msg/DVLBeam,0.8968000411987305,3,-92.83953857421875,-55.81422424316406,True,0.08602958917617798,0.04138750210404396,json_v3.1,std_msgs/msg/Header,dvl_link,builtin_interfaces/msg/Time,925270080,1724164482,0,103.55305480957031,geometry_msgs/msg/Vector3,0.16087567806243896,0.024597231298685074,0.04361879825592041,True
1724164483.0490136,sensors/msg/DVLVelocity,0.7644771933555603,sensors/msg/DVLBeam,0.8614000082015991,0,-91.37104797363281,-47.29269027709961,True,-0.008496332913637161,sensors/msg/DVLBeam,0.7670000195503235,1,-92.55242919921875,-49.75653839111328,True,-0.019287534058094025,sensors/msg/DVLBeam,0.8260000348091125,2,-89.2369613647461,-40.468589782714844,True,0.0728185698390007,sensors/msg/DVLBeam,0.9204000234603882,3,-91.55420684814453,-53.783721923828125,True,0.07951246201992035,0.04184343293309212,json_v3.1,std_msgs/msg/Header,dvl_link,builtin_interfaces/msg/Time,47978639,1724164483,0,107.72132873535156,geometry_msgs/msg/Vector3,0.16807511448860168,0.013722987845540047,0.033679261803627014,True
1724164483.1489987,sensors/msg/DVLVelocity,0.7644771933555603,sensors/msg/DVLBeam,0.8496000170707703,0,-91.43500518798828,-48.358394622802734,True,-0.022998666390776634,sensors/msg/DVLBeam,0.7788000106811523,1,-93.21724700927734,-45.05404281616211,True,-0.02982136979699135,sensors/msg/DVLBeam,0.8260000348091125,2,-89.65434265136719,-42.163002014160156,True,0.06023520231246948,sensors/msg/DVLBeam,0.9204000234603882,3,-92.28330993652344,-48.00407409667969,True,0.07527531683444977,0.04450742155313492,json_v3.1,std_msgs/msg/Header,dvl_link,builtin_interfaces/msg/Time,147677183,1724164483,0,112.11609649658203,geometry_msgs/msg/Vector3,0.18192914128303528,0.021256225183606148,0.022149253636598587,True
1724164483.2690632,sensors/msg/DVLVelocity,0.7617517113685608,sensors/msg/DVLBeam,0.8496000170707703,0,-92.6017837524414,-54.06307601928711,True,-0.046641722321510315,sensors/msg/DVLBeam,0.7788000106811523,1,-94.10135650634766,-46.12856674194336,True,-0.05506565421819687,sensors/msg/DVLBeam,0.8260000348091125,2,-90.69380950927734,-49.38579177856445,True,0.04693819209933281,sensors/msg/DVLBeam,0.9086000323295593,3,-92.9052963256836,-50.81891632080078,True,0.05851611867547035,0.04719634726643562,json_v3.1,std_msgs/msg/Header,dvl_link,builtin_interfaces/msg/Time,268354415,1724164483,0,106.72736358642578,geometry_msgs/msg/Vector3,0.19495151937007904,0.019200362265110016,0.0009196019964292645,True
1724164483.3726802,sensors/msg/DVLVelocity,0.7644771933555603,sensors/msg/DVLBeam,0.8614000082015991,0,-93.59942626953125,-45.29219055175781,True,-0.07604913413524628,sensors/msg/DVLBeam,0.7788000106811523,1,-95.16064453125,-42.209712982177734,True,-0.08873116225004196,sensors/msg/DVLBeam,0.8024000525474548,2,-91.71231842041016,-48.48771286010742,True,0.030465904623270035,sensors/msg/DVLBeam,0.932200014591217,3,-94.42381286621094,-50.62312316894531,True,0.04331940785050392,0.054613444954156876,json_v3.1,std_msgs/msg/Header,dvl_link,builtin_interfaces/msg/Time,372085094,1724164483,0,110.2142333984375,geometry_msgs/msg/Vector3,0.2171657234430313,0.023739298805594444,-0.02454564906656742,True
1724164483.4759276,sensors/msg/DVLVelocity,0.7699280977249146,sensors/msg/DVLBeam,0.8850000500679016,0,-93.86833953857422,-47.79597091674805,True,-0.10276563465595245,sensors/msg/DVLBeam,0.7906000018119812,1,-93.18665313720703,-48.060890197753906,True,-0.11742253601551056,sensors/msg/DVLBeam,0.8142000436782837,2,-91.44463348388672,-47.48353958129883,True,0.021416187286376953,sensors/msg/DVLBeam,0.9086000323295593,3,-93.42142486572266,-51.866661071777344,True,0.027691002935171127,0.06266768276691437,json_v3.1,std_msgs/msg/Header,dvl_link,builtin_interfaces/msg/Time,474800825,1724164483,0,105.91053771972656,geometry_msgs/msg/Vector3,0.2484714686870575,0.020645158365368843,-0.04513636603951454,True
1724164483.5861359,sensors/msg/DVLVelocity,0.7753790020942688,sensors/msg/DVLBeam,0.8850000500679016,0,-93.03817749023438,-48.22295379638672,True,-0.13202042877674103,sensors/msg/DVLBeam,0.8024000525474548,1,-95.37803649902344,-44.88603973388672,True,-0.1350976675748825,sensors/msg/DVLBeam,0.8260000348091125,2,-92.89923858642578,-45.88820266723633,True,-0.0002938173711299896,sensors/msg/DVLBeam,0.9086000323295593,3,-94.2686996459961,-53.557373046875,True,0.009886763989925385,0.06589529663324356,json_v3.1,std_msgs/msg/Header,dvl_link,builtin_interfaces/msg/Time,584506273,1724164483,0,105.94200897216797,geometry_msgs/msg/Vector3,0.2612379491329193,0.01605546474456787,-0.07031010836362839,True
1724164483.6901522,sensors/msg/DVLVelocity,0.7890061736106873,sensors/msg/DVLBeam,0.8968000411987305,0,-92.14774322509766,-54.29886245727539,True,-0.15112058818340302,sensors/msg/DVLBeam,0.8142000436782837,1,-93.71165466308594,-45.85757827758789,True,-0.1506626456975937,sensors/msg/DVLBeam,0.8378000259399414,2,-90.4701156616211,-44.14231491088867,True,-0.004745798651129007,sensors/msg/DVLBeam,0.932200014591217,3,-92.66893005371094,-54.86187744140625,True,-0.0062528979033231735,0.06900489330291748,json_v3.1,std_msgs/msg/Header,dvl_link,builtin_interfaces/msg/Time,689226150,1724164483,0,109.80487060546875,geometry_msgs/msg/Vector3,0.2653338313102722,-0.0017583610024303198,-0.08471091836690903,True
1724164483.7880461,sensors/msg/DVLVelocity,0.8080843091011047,sensors/msg/DVLBeam,0.9204000234603882,0,-91.3153305053711,-47.21958923339844,True,-0.14774572849273682,sensors/msg/DVLBeam,0.8142000436782837,1,-92.65003204345703,-44.4863395690918,True,-0.14758001267910004,sensors/msg/DVLBeam,0.8496000170707703,2,-89.53736114501953,-46.42210388183594,True,-0.01336437277495861,sensors/msg/DVLBeam,0.9794000387191772,3,-91.71099090576172,-49.14485168457031,True,-0.005637139081954956,0.06437774747610092,json_v3.1,std_msgs/msg/Header,dvl_link,builtin_interfaces/msg/Time,786964893,1724164483,0,107.89966583251953,geometry_msgs/msg/Vector3,0.2499525398015976,0.010881826281547546,-0.08233160525560379,True
1724164483.9077947,sensors/msg/DVLVelocity,0.8108097314834595,sensors/msg/DVLBeam,0.932200014591217,0,-93.07845306396484,-55.952796936035156,True,-0.1451086699962616,sensors/msg/DVLBeam,0.8378000259399414,1,-93.40467834472656,-49.2660026550293,True,-0.14071476459503174,sensors/msg/DVLBeam,0.8614000082015991,2,-91.3082275390625,-45.306087493896484,True,-0.009451139718294144,sensors/msg/DVLBeam,0.9440000057220459,3,-92.88473510742188,-53.08769226074219,True,-0.009212072938680649,0.06425319612026215,json_v3.1,std_msgs/msg/Header,dvl_link,builtin_interfaces/msg/Time,906644105,1724164483,0,110.34440612792969,geometry_msgs/msg/Vector3,0.2459821254014969,-0.006440897472202778,-0.08177299052476883,True
1724164484.0129728,sensors/msg/DVLVelocity,0.821711540222168,sensors/msg/DVLBeam,0.9558000564575195,0,-88.27873992919922,-50.374900817871094,True,-0.14136028289794922,sensors/msg/DVLBeam,0.8260000348091125,1,-92.00960540771484,-55.88481140136719,True,-0.13406039774417877,sensors/msg/DVLBeam,0.8850000500679016,2,-89.43257904052734,-49.389381408691406,True,0.0014890674501657486,sensors/msg/DVLBeam,0.9558000564575195,3,-90.41876983642578,-53.485084533691406,True,-0.005126018077135086,0.06435155868530273,json_v3.1,std_msgs/msg/Header,dvl_link,builtin_interfaces/msg/Time,12402057,1724164484,0,104.22634887695312,geometry_msgs/msg/Vector3,0.25245845317840576,-0.013093002140522003,-0.07498173415660858,True
1724164484.1307511,sensors/msg/DVLVelocity,0.8326132893562317,sensors/msg/DVLBeam,0.9440000057220459,0,-93.37510681152344,-55.95960235595703,True,-0.11262994259595871,sensors/msg/DVLBeam,0.8496000170707703,1,-94.17800903320312,-44.71319580078125,True,-0.1104075163602829,sensors/msg/DVLBeam,0.8850000500679016,2,-91.10419464111328,-47.07088851928711,True,0.007540639489889145,sensors/msg/DVLBeam,0.9912000298500061,3,-94.30802917480469,-51.162330627441406,True,0.010098345577716827,0.056134022772312164,json_v3.1,std_msgs/msg/Header,dvl_link,builtin_interfaces/msg/Time,129826307,1724164484,0,115.07820892333984,geometry_msgs/msg/Vector3,0.2215029001235962,-0.0010997781064361334,-0.05547173321247101,True
1724164484.2324874,sensors/msg/DVLVelocity,0.8435150980949402,sensors/msg/DVLBeam,0.9676000475883484,0,-90.65335083007812,-51.47660827636719,True,-0.09054761379957199,sensors/msg/DVLBeam,0.8496000170707703,1,-92.12335205078125,-50.31842803955078,True,-0.09101910144090652,sensors/msg/DVLBeam,0.8968000411987305,2,-88.99960327148438,-48.07445526123047,True,0.024595865979790688,sensors/msg/DVLBeam,1.003000020980835,3,-91.32552337646484,-47.90019989013672,True,0.026031244546175003,0.05332143232226372,json_v3.1,std_msgs/msg/Header,dvl_link,builtin_interfaces/msg/Time,231320619,1724164484,0,107.40733337402344,geometry_msgs/msg/Vector3,0.21399405598640442,0.0013176725478842854,-0.03507130593061447,True
1724164484.3443756,sensors/msg/DVLVelocity,0.8544168472290039,sensors/msg/DVLBeam,0.9794000387191772,0,-92.84786224365234,-44.58365249633789,True,-0.06743881851434708,sensors/msg/DVLBeam,0.8496000170707703,1,-93.03556060791016,-48.83164596557617,True,-0.07679151743650436,sensors/msg/DVLBeam,0.8968000411987305,2,-90.5194091796875,-39.94438171386719,True,0.03389054536819458,sensors/msg/DVLBeam,1.0384000539779663,3,-93.00151824951172,-47.32024002075195,True,0.04673619940876961,0.05149563029408455,json_v3.1,std_msgs/msg/Header,dvl_link,builtin_interfaces/msg/Time,343984127,1724164484,0,112.3087387084961,geometry_msgs/msg/Vector3,0.2071293145418167,0.018412262201309204,-0.016725663095712662,True
1724164484.4435914,sensors/msg/DVLVelocity,0.8625931739807129,sensors/msg/DVLBeam,0.9794000387191772,0,-92.11580657958984,-50.253746032714844,True,-0.05221714824438095,sensors/msg/DVLBeam,0.8614000082015991,1,-93.67034149169922,-59.3891716003418,True,-0.059974417090415955,sensors/msg/DVLBeam,0.9086000323295593,2,-90.257080078125,-47.592933654785156,True,0.004714790731668472,sensors/msg/DVLBeam,1.0501999855041504,3,-93.45545196533203,-50.92945098876953,True,0.06705749779939651,0.05269363522529602,json_v3.1,std_msgs/msg/Header,dvl_link,builtin_interfaces/msg/Time,442996263,1724164484,0,104.20536804199219,geometry_msgs/msg/Vector3,0.21300946176052094,0.02340608648955822,0.0012355359503999352,True
1724164484.567487,sensors/msg/DVLVelocity,0.8516914248466492,sensors/msg/DVLBeam,0.9794000387191772,0,-91.40979766845703,-49.48439025878906,True,-0.03352336212992668,sensors/msg/DVLBeam,0.8614000082015991,1,-92.77052307128906,-46.60155487060547,True,-0.045409537851810455,sensors/msg/DVLBeam,0.8968000411987305,2,-89.65348052978516,-50.3040771484375,True,0.06393395364284515,sensors/msg/DVLBeam,1.0148000717163086,3,-92.04936218261719,-55.28224182128906,True,0.08447539061307907,0.050639666616916656,json_v3.1,std_msgs/msg/Header,dvl_link,builtin_interfaces/msg/Time,567171096,1724164484,0,114.36271667480469,geometry_msgs/msg/Vector3,0.2012326568365097,0.02636936865746975,0.017359260469675064,True
1724164484.6736991,sensors/msg/DVLVelocity,0.8625931739807129,sensors/msg/DVLBeam,1.003000020980835,0,-94.07838439941406,-47.993961334228516,True,-0.013560604304075241,sensors/msg/DVLBeam,0.8614000082015991,1,-95.43990325927734,-48.266265869140625,True,-0.03425772488117218,sensors/msg/DVLBeam,0.9086000323295593,2,-92.19366455078125,-49.617698669433594,True,0.07459927350282669,sensors/msg/DVLBeam,1.0266000032424927,3,-94.3589096069336,-52.78445816040039,True,0.08742663264274597,0.048139482736587524,json_v3.1,std_msgs/msg/Header,dvl_link,builtin_interfaces/msg/Time,672888517,1724164484,0,109.5724105834961,geometry_msgs/msg/Vector3,0.19146817922592163,0.0267979484051466,0.03154837712645531,True
1724164484.7885172,sensors/msg/DVLVelocity,0.8653186559677124,sensors/msg/DVLBeam,1.0148000717163086,0,-90.994384765625,-50.04118347167969,True,0.003419394139200449,sensors/msg/DVLBeam,0.8614000082015991,1,-93.4674072265625,-48.697364807128906,True,-0.019615663215517998,sensors/msg/DVLBeam,0.8968000411987305,2,-89.58705139160156,-42.54204177856445,True,0.07637478411197662,sensors/msg/DVLBeam,1.0384000539779663,3,-92.74455261230469,-53.62300109863281,True,0.09716501832008362,0.04541437327861786,json_v3.1,std_msgs/msg/Header,dvl_link,builtin_interfaces/msg/Time,785590887,1724164484,0,111.48118591308594,geometry_msgs/msg/Vector3,0.17798252403736115,0.0396210253238678,0.04190004989504814,True
1724164484.8872457,sensors/msg/DVLVelocity,0.8680440783500671,sensors/msg/DVLBeam,1.003000020980835,0,-94.71672821044922,-47.960899353027344,True,0.0030004456639289856,sensors/msg/DVLBeam,0.8732000589370728,1,-94.75733947753906,-48.074546813964844,True,-0.02626543492078781,sensors/msg/DVLBeam,0.9086000323295593,2,-92.83161926269531,-45.13277816772461,True,0.08139954507350922,sensors/msg/DVLBeam,1.0384000539779663,3,-94.91227722167969,-50.34638977050781,True,0.10059215128421783,0.047087810933589935,json_v3.1,std_msgs/msg/Header,dvl_link,builtin_interfaces/msg/Time,886318683,1724164484,0,106.2257308959961,geometry_msgs/msg/Vector3,0.18375438451766968,0.039186518639326096,0.044915325939655304,True
1724164485.0190234,sensors/msg/DVLVelocity,0.8489660024642944,sensors/msg/DVLBeam,0.9794000387191772,0,-93.52116394042969,-55.26462173461914,True,0.006670083850622177,sensors/msg/DVLBeam,0.8614000082015991,1,-95.4261703491211,-40.093997955322266,True,-0.018449239432811737,sensors/msg/DVLBeam,0.8850000500679016,2,-92.57685089111328,-48.54835510253906,True,0.0898333266377449,sensors/msg/DVLBeam,1.0148000717163086,3,-93.75971984863281,-52.50786209106445,True,0.10439305007457733,0.04850805550813675,json_v3.1,std_msgs/msg/Header,dvl_link,builtin_interfaces/msg/Time,17966508,1724164485,0,107.31744384765625,geometry_msgs/msg/Vector3,0.18798477947711945,0.034773554652929306,0.04855545237660408,True
1724164485.1096647,sensors/msg/DVLVelocity,0.8544168472290039,sensors/msg/DVLBeam,0.9794000387191772,0,-93.76805877685547,-49.45252227783203,True,0.008628170937299728,sensors/msg/DVLBeam,0.8614000082015991,1,-94.69635009765625,-44.69648742675781,True,-0.025705082342028618,sensors/msg/DVLBeam,0.8850000500679016,2,-92.60530090332031,-46.8075065612793,True,0.08694566786289215,sensors/msg/DVLBeam,1.0384000539779663,3,-93.41838836669922,-50.112220764160156,True,0.11263081431388855,0.05192878469824791,json_v3.1,std_msgs/msg/Header,dvl_link,builtin_interfaces/msg/Time,108722686,1724164485,0,111.06253051757812,geometry_msgs/msg/Vector3,0.1993691325187683,0.0576668418943882,0.04829932004213333,True
1724164485.2255697,sensors/msg/DVLVelocity,0.8435150980949402,sensors/msg/DVLBeam,0.9558000564575195,0,-93.7064208984375,-54.35787582397461,True,0.00975656695663929,sensors/msg/DVLBeam,0.8614000082015991,1,-93.43683624267578,-51.28651428222656,True,-0.01901114545762539,sensors/msg/DVLBeam,0.8850000500679016,2,-90.68915557861328,-52.00562286376953,True,0.08875784277915955,sensors/msg/DVLBeam,1.0148000717163086,3,-94.68416595458984,-58.02436065673828,True,0.1189410388469696,0.0528184212744236,json_v3.1,std_msgs/msg/Header,dvl_link,builtin_interfaces/msg/Time,224415779,1724164485,0,108.04176330566406,geometry_msgs/msg/Vector3,0.20193563401699066,0.055514052510261536,0.05307072773575783,True
1724164485.3320754,sensors/msg/DVLVelocity,0.8435150980949402,sensors/msg/DVLBeam,0.9676000475883484,0,-93.42367553710938,-47.475807189941406,True,0.010556173510849476,sensors/msg/DVLBeam,0.8496000170707703,1,-94.43458557128906,-49.55055236816406,True,-0.03109489195048809,sensors/msg/DVLBeam,0.8968000411987305,2,-91.64173126220703,-39.74936294555664,True,0.08424723148345947,sensors/msg/DVLBeam,1.003000020980835,3,-94.3905258178711,-55.592567443847656,True,0.12239473313093185,0.05557304993271828,json_v3.1,std_msgs/msg/Header,dvl_link,builtin_interfaces/msg/Time,331128358,1724164485,0,108.68763732910156,geometry_msgs/msg/Vector3,0.20855571329593658,0.0761830061674118,0.05069772154092789,True
1724164485.4289906,sensors/msg/DVLVelocity,0.8407896757125854,sensors/msg/DVLBeam,0.9558000564575195,0,-92.75251770019531,-47.509891510009766,True,0.00430440716445446,sensors/msg/DVLBeam,0.8378000259399414,1,-93.85553741455078,-46.47877883911133,True,-0.03498411923646927,sensors/msg/DVLBeam,0.8968000411987305,2,-90.8388900756836,-48.28182601928711,True,0.08124630153179169,sensors/msg/DVLBeam,1.0148000717163086,3,-93.7104263305664,-54.23393249511719,True,0.11640919744968414,0.05540601909160614,json_v3.1,std_msgs/msg/Header,dvl_link,builtin_interfaces/msg/Time,427621603,1724164485,0,106.58645629882812,geometry_msgs/msg/Vector3,0.20851635932922363,0.06952333450317383,0.04445916786789894,True
1724164485.5325751,sensors/msg/DVLVelocity,0.8353387713432312,sensors/msg/DVLBeam,0.9558000564575195,0,-92.85111999511719,-53.090049743652344,True,-0.01144759263843298,sensors/msg/DVLBeam,0.8378000259399414,1,-93.70616912841797,-48.956233978271484,True,-0.04906638711690903,sensors/msg/DVLBeam,0.8968000411987305,2,-90.86799621582031,-49.97643280029297,True,0.07003376632928848,sensors/msg/DVLBeam,0.9912000298500061,3,-92.59400939941406,-55.57789993286133,True,0.09862478077411652,0.053961414843797684,json_v3.1,std_msgs/msg/Header,dvl_link,builtin_interfaces/msg/Time,531853199,1724164485,0,106.70709228515625,geometry_msgs/msg/Vector3,0.209544375538826,0.05878671631217003,0.03033798560500145,True
1724164485.656518,sensors/msg/DVLVelocity,0.8407896161079407,sensors/msg/DVLBeam,0.932200014591217,0,-92.94187927246094,-47.99125671386719,True,-0.03184148669242859,sensors/msg/DVLBeam,0.8378000259399414,1,-94.06391906738281,-51.66900634765625,True,-0.06145452708005905,sensors/msg/DVLBeam,0.9086000323295593,2,-91.164794921875,-42.074310302734375,True,0.051668718457221985,sensors/msg/DVLBeam,1.0266000032424927,3,-92.98625946044922,-49.266563415527344,True,0.08178658783435822,0.053115084767341614,json_v3.1,std_msgs/msg/Header,dvl_link,builtin_interfaces/msg/Time,655524015,1724164485,0,112.51473236083984,geometry_msgs/msg/Vector3,0.21131794154644012,0.05496020242571831,0.011075290851294994,True
1724164485.7711332,sensors/msg/DVLVelocity,0.8435150980949402,sensors/msg/DVLBeam,0.9440000057220459,0,-92.54354858398438,-44.46381759643555,True,-0.06179972365498543,sensors/msg/DVLBeam,0.8378000259399414,1,-94.57197570800781,-55.643070220947266,True,-0.08449912071228027,sensors/msg/DVLBeam,0.9204000234603882,2,-91.53783416748047,-43.40378189086914,True,0.031604938209056854,sensors/msg/DVLBeam,1.0148000717163086,3,-93.20000457763672,-49.81681823730469,True,0.04090958833694458,0.050132106989622116,json_v3.1,std_msgs/msg/Header,dvl_link,builtin_interfaces/msg/Time,769923686,1724164485,0,112.98323059082031,geometry_msgs/msg/Vector3,0.2021091878414154,0.02939167246222496,-0.021008003503084183,True
1724164485.8634949,sensors/msg/DVLVelocity,0.8544168472290039,sensors/msg/DVLBeam,0.932200014591217,0,-93.64594268798828,-53.377201080322266,True,-0.10149325430393219,sensors/msg/DVLBeam,0.8614000082015991,1,-94.45250701904297,-45.14934539794922,True,-0.09905488789081573,sensors/msg/DVLBeam,0.932200014591217,2,-91.99562072753906,-43.403812408447266,True,0.01708335243165493,sensors/msg/DVLBeam,1.0384000539779663,3,-94.73507690429688,-47.89269256591797,True,0.010162614285945892,0.05366430804133415,json_v3.1,std_msgs/msg/Header,dvl_link,builtin_interfaces/msg/Time,862674236,1724164485,0,112.41412353515625,geometry_msgs/msg/Vector3,0.2183070331811905,-0.010614559054374695,-0.04754496365785599,True
1724164485.98732,sensors/msg/DVLVelocity,0.8680441379547119,sensors/msg/DVLBeam,0.9558000564575195,0,-92.21369934082031,-46.44416427612305,True,-0.10884471237659454,sensors/msg/DVLBeam,0.8732000589370728,1,-93.83694458007812,-47.3253173828125,True,-0.11141178756952286,sensors/msg/DVLBeam,0.9558000564575195,2,-90.37723541259766,-43.481754302978516,True,-5.322229117155075e-05,sensors/msg/DVLBeam,1.0384000539779663,3,-92.5915756225586,-51.889320373535156,True,-0.007907319813966751,0.04912935569882393,json_v3.1,std_msgs/msg/Header,dvl_link,builtin_interfaces/msg/Time,986754417,1724164485,0,104.929443359375,geometry_msgs/msg/Vector3,0.18678200244903564,-0.007666005752980709,-0.06005063280463219,True
1724164486.078583,sensors/msg/DVLVelocity,0.8625931739807129,sensors/msg/DVLBeam,0.9440000057220459,0,-92.21977996826172,-52.574947357177734,True,-0.11694779247045517,sensors/msg/DVLBeam,0.8732000589370728,1,-92.98483276367188,-44.308231353759766,True,-0.12421200424432755,sensors/msg/DVLBeam,0.9440000057220459,2,-90.16724395751953,-47.17618942260742,True,-0.014834672212600708,sensors/msg/DVLBeam,1.0384000539779663,3,-93.17634582519531,-50.190982818603516,True,-0.015347816981375217,0.05063836649060249,json_v3.1,std_msgs/msg/Header,dvl_link,builtin_interfaces/msg/Time,77524900,1724164486,0,107.33103942871094,geometry_msgs/msg/Vector3,0.19259753823280334,0.006161724682897329,-0.0720897763967514,True
1724164486.2081487,sensors/msg/DVLVelocity,0.8816713094711304,sensors/msg/DVLBeam,0.9912000298500061,0,-91.86465454101562,-52.31645965576172,True,-0.11688470095396042,sensors/msg/DVLBeam,0.8850000500679016,1,-93.74539184570312,-45.110897064208984,True,-0.11316626518964767,sensors/msg/DVLBeam,0.9676000475883484,2,-90.1209487915039,-44.21495056152344,True,-0.015925947576761246,sensors/msg/DVLBeam,1.0384000539779663,3,-92.51451873779297,-50.86430358886719,True,-0.01841890998184681,0.04749124124646187,json_v3.1,std_msgs/msg/Header,dvl_link,builtin_interfaces/msg/Time,207774877,1724164486,0,107.5692138671875,geometry_msgs/msg/Vector3,0.17916540801525116,-0.005192856304347515,-0.07242656499147415,True
1724164486.3130684,sensors/msg/DVLVelocity,0.8843967318534851,sensors/msg/DVLBeam,1.003000020980835,0,-92.02635955810547,-51.8958740234375,True,-0.11163292080163956,sensors/msg/DVLBeam,0.8968000411987305,1,-93.6585693359375,-50.51377868652344,True,-0.11100808531045914,sensors/msg/DVLBeam,0.932200014591217,2,-90.75890350341797,-53.095420837402344,True,-0.011777270585298538,sensors/msg/DVLBeam,1.062000036239624,3,-92.93669891357422,-52.369285583496094,True,-0.013819042593240738,0.04737919941544533,json_v3.1,std_msgs/msg/Header,dvl_link,builtin_interfaces/msg/Time,312464952,1724164486,0,106.7607421875,geometry_msgs/msg/Vector3,0.1825435608625412,-0.0017126681050285697,-0.0681164562702179,True
1724164486.4100058,sensors/msg/DVLVelocity,0.8980239629745483,sensors/msg/DVLBeam,1.003000020980835,0,-92.51202392578125,-50.509979248046875,True,-0.10971321165561676,sensors/msg/DVLBeam,0.9086000323295593,1,-93.42667388916016,-44.27100372314453,True,-0.10767966508865356,sensors/msg/DVLBeam,0.9558000564575195,2,-91.01581573486328,-41.46865463256836,True,-0.008725604973733425,sensors/msg/DVLBeam,1.0856000185012817,3,-93.94019317626953,-47.342342376708984,True,-0.015449337661266327,0.04738079756498337,json_v3.1,std_msgs/msg/Header,dvl_link,builtin_interfaces/msg/Time,409783363,1724164486,0,105.71312713623047,geometry_msgs/msg/Vector3,0.183292418718338,-0.006650351453572512,-0.06493830680847168,True
1724164486.5320988,sensors/msg/DVLVelocity,0.9034748673439026,sensors/msg/DVLBeam,1.0148000717163086,0,-93.78234100341797,-56.26685333251953,True,-0.10507902503013611,sensors/msg/DVLBeam,0.9204000234603882,1,-94.55158233642578,-49.44460678100586,True,-0.09872928261756897,sensors/msg/DVLBeam,0.9558000564575195,2,-92.33318328857422,-39.95964813232422,True,0.0008565988391637802,sensors/msg/DVLBeam,1.0856000185012817,3,-94.40238952636719,-47.13840103149414,True,-0.006933653261512518,0.04687322676181793,json_v3.1,std_msgs/msg/Header,dvl_link,builtin_interfaces/msg/Time,531455755,1724164486,0,107.72728729248047,geometry_msgs/msg/Vector3,0.18409748375415802,-0.01245123241096735,-0.05696458742022514,True
1724164486.6296706,sensors/msg/DVLVelocity,0.9171020984649658,sensors/msg/DVLBeam,1.0384000539779663,0,-93.52937316894531,-55.657867431640625,True,-0.10494063794612885,sensors/msg/DVLBeam,0.932200014591217,1,-95.8487548828125,-51.34939956665039,True,-0.08616239577531815,sensors/msg/DVLBeam,0.9794000387191772,2,-93.23829650878906,-42.4934196472168,True,0.01669347658753395,sensors/msg/DVLBeam,1.0856000185012817,3,-92.74407958984375,-49.434478759765625,True,0.0011730575934052467,0.049860768020153046,json_v3.1,std_msgs/msg/Header,dvl_link,builtin_interfaces/msg/Time,629194974,1724164486,0,110.77737426757812,geometry_msgs/msg/Vector3,0.19733181595802307,-0.03377619758248329,-0.04623270407319069,True
1724164486.7309153,sensors/msg/DVLVelocity,0.9171020984649658,sensors/msg/DVLBeam,1.062000036239624,0,-92.39421081542969,-54.79113006591797,True,-0.09010279923677444,sensors/msg/DVLBeam,0.932200014591217,1,-93.6776351928711,-46.74494171142578,True,-0.06982418149709702,sensors/msg/DVLBeam,0.9440000057220459,2,-90.51390838623047,-50.619590759277344,True,0.023138659074902534,sensors/msg/DVLBeam,1.0974000692367554,3,-93.14781188964844,-48.198333740234375,True,0.005610618740320206,0.04461357742547989,json_v3.1,std_msgs/msg/Header,dvl_link,builtin_interfaces/msg/Time,729924201,1724164486,0,107.61117553710938,geometry_msgs/msg/Vector3,0.17840446531772614,-0.03336704149842262,-0.03525207191705704,True
1724164486.8599885,sensors/msg/DVLVelocity,0.9280038475990295,sensors/msg/DVLBeam,1.0738000869750977,0,-91.67045593261719,-51.48804473876953,True,-0.0746607556939125,sensors/msg/DVLBeam,0.9440000057220459,1,-93.03105163574219,-55.89590072631836,True,-0.05636455491185188,sensors/msg/DVLBeam,0.9558000564575195,2,-90.42134857177734,-47.754417419433594,True,0.04574845731258392,sensors/msg/DVLBeam,1.1092000007629395,3,-92.04212951660156,-47.4442253112793,True,0.027670377865433693,0.04714050143957138,json_v3.1,std_msgs/msg/Header,dvl_link,builtin_interfaces/msg/Time,859131097,1724164486,0,114.31646728515625,geometry_msgs/msg/Vector3,0.18708094954490662,-0.033155377954244614,-0.015859095379710197,True
1724164486.9544268,sensors/msg/DVLVelocity,0.9171020984649658,sensors/msg/DVLBeam,1.0501999855041504,0,-91.17667388916016,-58.55424499511719,True,-0.047372959554195404,sensors/msg/DVLBeam,0.9440000057220459,1,-93.99996185302734,-50.32475280761719,True,-0.043373946100473404,sensors/msg/DVLBeam,0.9676000475883484,2,-90.0871810913086,-43.854515075683594,True,0.018454214558005333,sensors/msg/DVLBeam,1.0738000869750977,3,-91.00252532958984,-54.10554504394531,True,0.04916626960039139,0.04309236258268356,json_v3.1,std_msgs/msg/Header,dvl_link,builtin_interfaces/msg/Time,953842401,1724164486,0,103.24931335449219,geometry_msgs/msg/Vector3,0.17577068507671356,0.0003634542226791382,0.0011506375158205628,True
1724164487.0691652,sensors/msg/DVLVelocity,0.9171020984649658,sensors/msg/DVLBeam,1.062000036239624,0,-93.94933319091797,-52.38832092285156,True,-0.02403736487030983,sensors/msg/DVLBeam,0.932200014591217,1,-95.38900756835938,-49.03998565673828,True,-0.02237483114004135,sensors/msg/DVLBeam,0.9558000564575195,2,-92.52465057373047,-50.27992248535156,True,0.07996979355812073,sensors/msg/DVLBeam,1.0856000185012817,3,-94.6161880493164,-53.404850006103516,True,0.07925547659397125,0.04706592857837677,json_v3.1,std_msgs/msg/Header,dvl_link,builtin_interfaces/msg/Time,68536043,1724164487,0,108.15453338623047,geometry_msgs/msg/Vector3,0.18679459393024445,-0.002128385938704014,0.030394524335861206,True
1724164487.1650088,sensors/msg/DVLVelocity,0.9225530028343201,sensors/msg/DVLBeam,1.0738000869750977,0,-93.55325317382812,-59.80657958984375,True,-0.002815338782966137,sensors/msg/DVLBeam,0.9440000057220459,1,-93.97320556640625,-44.74787902832031,True,-0.011952091008424759,sensors/msg/DVLBeam,0.9440000057220459,2,-90.96876525878906,-45.051143646240234,True,0.10043483972549438,sensors/msg/DVLBeam,1.0974000692367554,3,-94.61634826660156,-46.76785659790039,True,0.10454536229372025,0.05132293328642845,json_v3.1,std_msgs/msg/Header,dvl_link,builtin_interfaces/msg/Time,164281368,1724164487,0,107.818603515625,geometry_msgs/msg/Vector3,0.20108245313167572,0.014854056760668755,0.05070586875081062,True
1724164487.2873082,sensors/msg/DVLVelocity,0.9143766760826111,sensors/msg/DVLBeam,1.062000036239624,0,-92.86695098876953,-51.468162536621094,True,0.024690961465239525,sensors/msg/DVLBeam,0.932200014591217,1,-94.0190658569336,-46.83142852783203,True,0.008646056056022644,sensors/msg/DVLBeam,0.9558000564575195,2,-91.03153991699219,-46.783058166503906,True,0.12340065836906433,sensors/msg/DVLBeam,1.0738000869750977,3,-93.03532409667969,-55.94049072265625,True,0.13119132816791534,0.05361488461494446,json_v3.1,std_msgs/msg/Header,dvl_link,builtin_interfaces/msg/Time,286951541,1724164487,0,106.78434753417969,geometry_msgs/msg/Vector3,0.20345261693000793,0.024013519287109375,0.07600197941064835,True
1724164487.3892388,sensors/msg/DVLVelocity,0.9252784252166748,sensors/msg/DVLBeam,1.0738000869750977,0,-92.23673248291016,-52.87025451660156,True,0.037587277591228485,sensors/msg/DVLBeam,0.9440000057220459,1,-93.60321807861328,-48.99174880981445,True,0.06388513743877411,sensors/msg/DVLBeam,0.9676000475883484,2,-91.35489654541016,-44.13594436645508,True,0.21805687248706818,sensors/msg/DVLBeam,1.0856000185012817,3,-92.11931610107422,-50.18621063232422,True,0.1482684463262558,0.061932288110256195,json_v3.1,std_msgs/msg/Header,dvl_link,builtin_interfaces/msg/Time,387681484,1724164487,0,111.06538391113281,geometry_msgs/msg/Vector3,0.20627352595329285,-0.0753898099064827,0.12260056287050247,True
1724164487.4891558,sensors/msg/DVLVelocity,0.9007493853569031,sensors/msg/DVLBeam,1.0266000032424927,0,-90.82836151123047,-54.00989532470703,True,0.04365604743361473,sensors/msg/DVLBeam,0.9204000234603882,1,-92.3047103881836,-47.488346099853516,True,0.0010045897215604782,sensors/msg/DVLBeam,0.932200014591217,2,-88.82428741455078,-39.7775993347168,True,0.12301469594240189,sensors/msg/DVLBeam,1.0856000185012817,3,-92.0123062133789,-48.026973724365234,True,0.1651943475008011,0.06250321120023727,json_v3.1,std_msgs/msg/Header,dvl_link,builtin_interfaces/msg/Time,488412618,1724164487,0,108.56652069091797,geometry_msgs/msg/Vector3,0.2285950928926468,0.07834487408399582,0.09017257392406464,True
1724164487.6086845,sensors/msg/DVLVelocity,0.8952985405921936,sensors/msg/DVLBeam,1.0266000032424927,0,-90.55802917480469,-50.313575744628906,True,0.03333358094096184,sensors/msg/DVLBeam,0.9086000323295593,1,-92.56645202636719,-43.760494232177734,True,0.004965402185916901,sensors/msg/DVLBeam,0.932200014591217,2,-89.17535400390625,-44.363319396972656,True,0.11274054646492004,sensors/msg/DVLBeam,1.0738000869750977,3,-91.17064666748047,-52.19274139404297,True,0.15336580574512482,0.0579184927046299,json_v3.1,std_msgs/msg/Header,dvl_link,builtin_interfaces/msg/Time,608094930,1724164487,0,107.88082885742188,geometry_msgs/msg/Vector3,0.21427474915981293,0.06789103895425797,0.0818491131067276,True
1724164487.7236922,sensors/msg/DVLVelocity,0.8816713094711304,sensors/msg/DVLBeam,1.0148000717163086,0,-93.03453826904297,-46.446319580078125,True,0.00040271878242492676,sensors/msg/DVLBeam,0.9086000323295593,1,-94.17351531982422,-51.540008544921875,True,-0.02394644170999527,sensors/msg/DVLBeam,0.9204000234603882,2,-90.93216705322266,-50.318031311035156,True,0.10379395633935928,sensors/msg/DVLBeam,1.0384000539779663,3,-93.44954681396484,-44.52953338623047,True,0.12875570356845856,0.0607091560959816,json_v3.1,std_msgs/msg/Header,dvl_link,builtin_interfaces/msg/Time,722565889,1724164487,0,110.56756591796875,geometry_msgs/msg/Vector3,0.23627682030200958,0.046985939145088196,0.055684518069028854,True
1724164487.8180299,sensors/msg/DVLVelocity,0.8871221542358398,sensors/msg/DVLBeam,1.0266000032424927,0,-92.75353240966797,-52.19282531738281,True,-0.030033253133296967,sensors/msg/DVLBeam,0.8968000411987305,1,-94.85148620605469,-44.99580383300781,True,-0.04279586672782898,sensors/msg/DVLBeam,0.932200014591217,2,-92.18509674072266,-43.96426773071289,True,0.08958198130130768,sensors/msg/DVLBeam,1.0501999855041504,3,-92.86799621582031,-50.08512496948242,True,0.10721781849861145,0.06217128410935402,json_v3.1,std_msgs/msg/Header,dvl_link,builtin_interfaces/msg/Time,817316532,1724164487,0,108.85691833496094,geometry_msgs/msg/Vector3,0.25079426169395447,0.027549955993890762,0.03423275426030159,True
1724164487.924522,sensors/msg/DVLVelocity,0.8816713094711304,sensors/msg/DVLBeam,0.9912000298500061,0,-93.89100646972656,-53.40027618408203,True,-0.05337736755609512,sensors/msg/DVLBeam,0.9086000323295593,1,-94.63965606689453,-46.20499038696289,True,-0.07133936136960983,sensors/msg/DVLBeam,0.9440000057220459,2,-91.9034194946289,-44.64739227294922,True,0.05875123292207718,sensors/msg/DVLBeam,1.0384000539779663,3,-94.82215881347656,-53.27821350097656,True,0.07244133949279785,0.0584801509976387,json_v3.1,std_msgs/msg/Header,dvl_link,builtin_interfaces/msg/Time,923541784,1724164487,0,108.97350311279297,geometry_msgs/msg/Vector3,0.23869392275810242,0.028031984344124794,0.0013774092076346278,True
1724164488.055604,sensors/msg/DVLVelocity,0.8734949827194214,sensors/msg/DVLBeam,0.9912000298500061,0,-92.82276153564453,-51.51140594482422,True,-0.08797593414783478,sensors/msg/DVLBeam,0.8968000411987305,1,-95.15440368652344,-46.189552307128906,True,-0.08653315901756287,sensors/msg/DVLBeam,0.9204000234603882,2,-91.95672607421875,-50.023536682128906,True,0.03521355614066124,sensors/msg/DVLBeam,1.0384000539779663,3,-93.37592315673828,-54.64237976074219,True,0.05123213306069374,0.059844426810741425,json_v3.1,std_msgs/msg/Header,dvl_link,builtin_interfaces/msg/Time,54775714,1724164488,0,108.94751739501953,geometry_msgs/msg/Vector3,0.2376669943332672,0.02481316216289997,-0.024563366547226906,True
1724164488.1523457,sensors/msg/DVLVelocity,0.8843967318534851,sensors/msg/DVLBeam,0.9794000387191772,0,-93.11343383789062,-52.102752685546875,True,-0.10065577924251556,sensors/msg/DVLBeam,0.9086000323295593,1,-94.32933807373047,-46.43395233154297,True,-0.09978252649307251,sensors/msg/DVLBeam,0.9558000564575195,2,-91.2431869506836,-49.419822692871094,True,0.02887541987001896,sensors/msg/DVLBeam,1.0501999855041504,3,-94.00831604003906,-52.31760787963867,True,0.025400642305612564,0.05838353559374809,json_v3.1,std_msgs/msg/Header,dvl_link,builtin_interfaces/msg/Time,151532649,1724164488,0,108.87789916992188,geometry_msgs/msg/Vector3,0.23330019414424896,-0.0028799441643059254,-0.039337433874607086,True
1724164488.2811856,sensors/msg/DVLVelocity,0.8871222138404846,sensors/msg/DVLBeam,1.003000020980835,0,-94.62216186523438,-46.18880844116211,True,-0.1123105138540268,sensors/msg/DVLBeam,0.9204000234603882,1,-95.51981353759766,-49.08735656738281,True,-0.10210596770048141,sensors/msg/DVLBeam,0.9558000564575195,2,-92.64408111572266,-46.18138885498047,True,0.01462327130138874,sensors/msg/DVLBeam,1.0266000032424927,3,-94.92385864257812,-51.362823486328125,True,0.006673580035567284,0.05513767898082733,json_v3.1,std_msgs/msg/Header,dvl_link,builtin_interfaces/msg/Time,280216932,1724164488,0,117.26188659667969,geometry_msgs/msg/Vector3,0.2201227843761444,-0.0164320170879364,-0.05304337292909622,True
1724164488.6612906,sensors/msg/DVLVelocity,0.9116511940956116,sensors/msg/DVLBeam,1.0384000539779663,0,-91.44453430175781,-49.02724075317383,True,-0.10836914926767349,sensors/msg/DVLBeam,0.932200014591217,1,-92.07467651367188,-55.06036376953125,True,-0.08635774254798889,sensors/msg/DVLBeam,0.9676000475883484,2,-89.66524505615234,-41.39085006713867,True,0.021905317902565002,sensors/msg/DVLBeam,1.0738000869750977,3,-91.99622344970703,-48.8674201965332,True,-0.00136898597702384,0.05106543004512787,json_v3.1,std_msgs/msg/Header,dvl_link,builtin_interfaces/msg/Time,660376310,1724164488,0,117.11930847167969,geometry_msgs/msg/Vector3,0.1981455534696579,-0.0422917939722538,-0.04729887843132019,True
1724164488.7680266,sensors/msg/DVLVelocity,0.9089257717132568,sensors/msg/DVLBeam,1.0266000032424927,0,-93.6664810180664,-55.58206558227539,True,-0.09436123073101044,sensors/msg/DVLBeam,0.9440000057220459,1,-95.1359634399414,-51.57261276245117,True,-0.07939077168703079,sensors/msg/DVLBeam,0.9676000475883484,2,-92.25689697265625,-45.397193908691406,True,0.0207293052226305,sensors/msg/DVLBeam,1.062000036239624,3,-94.1980972290039,-54.456451416015625,True,0.003012810368090868,0.04639587923884392,json_v3.1,std_msgs/msg/Header,dvl_link,builtin_interfaces/msg/Time,767033576,1724164488,0,106.84632873535156,geometry_msgs/msg/Vector3,0.18109005689620972,-0.031100226566195488,-0.04044801741838455,True
1724164488.8744483,sensors/msg/DVLVelocity,0.930729329586029,sensors/msg/DVLBeam,1.062000036239624,0,-92.69725036621094,-56.868133544921875,True,-0.09350153058767319,sensors/msg/DVLBeam,0.9558000564575195,1,-93.51744079589844,-43.46024703979492,True,-0.08095766603946686,sensors/msg/DVLBeam,0.9794000387191772,2,-91.08219146728516,-42.69858169555664,True,0.0413130484521389,sensors/msg/DVLBeam,1.0974000692367554,3,-93.672119140625,-53.08832550048828,True,0.01997551880776882,0.05516691878437996,json_v3.1,std_msgs/msg/Header,dvl_link,builtin_interfaces/msg/Time,873749017,1724164488,0,111.33193969726562,geometry_msgs/msg/Vector3,0.22260236740112305,-0.032595112919807434,-0.030644331127405167,True
1724164488.9941459,sensors/msg/DVLVelocity,0.9334548115730286,sensors/msg/DVLBeam,1.0738000869750977,0,-91.5493392944336,-53.76275634765625,True,-0.0649440586566925,sensors/msg/DVLBeam,0.9676000475883484,1,-94.27682495117188,-46.2397346496582,True,-0.05856527388095856,sensors/msg/DVLBeam,0.9912000298500061,2,-91.39044952392578,-44.75756072998047,True,0.06283854693174362,sensors/msg/DVLBeam,1.0738000869750977,3,-92.32574462890625,-54.12030792236328,True,0.048670802265405655,0.05463169142603874,json_v3.1,std_msgs/msg/Header,dvl_link,builtin_interfaces/msg/Time,993428945,1724164488,0,106.44984436035156,geometry_msgs/msg/Vector3,0.22342726588249207,-0.0202771108597517,-0.0038306971546262503,True
