t,__msgtype__,child_frame_id,header.__msgtype__,header.frame_id,header.stamp.__msgtype__,header.stamp.nanosec,header.stamp.sec,pose.__msgtype__,pose.pose.__msgtype__,pose.pose.orientation.__msgtype__,pose.pose.orientation.w,pose.pose.orientation.x,pose.pose.orientation.y,pose.pose.orientation.z,pose.pose.position.__msgtype__,pose.pose.position.x,pose.pose.position.y,pose.pose.position.z,twist.__msgtype__,twist.twist.__msgtype__,twist.twist.angular.__msgtype__,twist.twist.angular.x,twist.twist.angular.y,twist.twist.angular.z,twist.twist.linear.__msgtype__,twist.twist.linear.x,twist.twist.linear.y,twist.twist.linear.z
1760946522.5892324,nav_msgs/msg/Odometry,vehicle/Ground_Truth,std_msgs/msg/Header,world_ned,builtin_interfaces/msg/Time,588890789,1760946522,geometry_msgs/msg/PoseWithCovariance,geometry_msgs/msg/Pose,geometry_msgs/msg/Quaternion,0.9997144745107259,-0.010085892556268742,0.007144425147332492,-0.020449973457212344,geometry_msgs/msg/Point,24.08884996209023,-0.09059057058325125,3.9835501625875365,geometry_msgs/msg/TwistWithCovariance,geometry_msgs/msg/Twist,geometry_msgs/msg/Vector3,-0.020655627124281133,-0.02451579054410667,-0.013627988870959167,geometry_msgs/msg/Vector3,0.1648709071119326,-0.06412056373746759,-0.044092110479797116
1760946522.6897397,nav_msgs/msg/Odometry,vehicle/Ground_Truth,std_msgs/msg/Header,world_ned,builtin_interfaces/msg/Time,687522041,1760946522,geometry_msgs/msg/PoseWithCovariance,geometry_msgs/msg/Pose,geometry_msgs/msg/Quaternion,0.9996973665026144,-0.011148192523781682,0.005933344341226464,-0.021111339041343206,geometry_msgs/msg/Point,24.105368457672817,-0.09810027552819149,3.979392313309582,geometry_msgs/msg/TwistWithCovariance,geometry_msgs/msg/Twist,geometry_msgs/msg/Vector3,-0.020655627124281137,-0.02451579054410667,-0.01362798887095917,geometry_msgs/msg/Vector3,0.17166538960787703,-0.07055477637698945,-0.03716435701680132
1760946522.7896476,nav_msgs/msg/Odometry,vehicle/Ground_Truth,std_msgs/msg/Header,world_ned,builtin_interfaces/msg/Time,789554776,1760946522,geometry_msgs/msg/PoseWithCovariance,geometry_msgs/msg/Pose,geometry_msgs/msg/Quaternion,0.9996772265172987,-0.012210458679998721,0.004722245539910929,-0.0217726405970023,geometry_msgs/msg/Point,24.122243189391835,-0.106287865239901,3.9761720633260733,geometry_msgs/msg/TwistWithCovariance,geometry_msgs/msg/Twist,geometry_msgs/msg/Vector3,-0.020655627124281137,-0.024515790544106675,-0.01362798887095917,geometry_msgs/msg/Vector3,0.1717954949327345,-0.0768907615373389,-0.026624500256529106
1760946522.8878684,nav_msgs/msg/Odometry,vehicle/Ground_Truth,std_msgs/msg/Header,world_ned,builtin_interfaces/msg/Time,887821782,1760946522,geometry_msgs/msg/PoseWithCovariance,geometry_msgs/msg/Pose,geometry_msgs/msg/Quaternion,0.9996527704078223,-0.013596117786884798,0.003134494473701048,-0.022353056647474612,geometry_msgs/msg/Point,24.13877552703776,-0.11506801062275211,3.974235322838773,geometry_msgs/msg/TwistWithCovariance,geometry_msgs/msg/Twist,geometry_msgs/msg/Vector3,-0.03523397913320907,-0.042301933164605364,-0.010177474640870836,geometry_msgs/msg/Vector3,0.16640527222005297,-0.08320480975874665,-0.0137525783516509
1760946522.986377,nav_msgs/msg/Odometry,vehicle/Ground_Truth,std_msgs/msg/Header,world_ned,builtin_interfaces/msg/Time,986324376,1760946522,geometry_msgs/msg/PoseWithCovariance,geometry_msgs/msg/Pose,geometry_msgs/msg/Quaternion,0.9996201599854938,-0.015405842347528308,0.0010527915186082288,-0.022827338919751868,geometry_msgs/msg/Point,24.15473819354037,-0.12453681852689978,3.973626239124318,geometry_msgs/msg/TwistWithCovariance,geometry_msgs/msg/Twist,geometry_msgs/msg/Vector3,-0.03523397913320907,-0.04230193316460536,-0.010177474640870834,geometry_msgs/msg/Vector3,0.1607894288666318,-0.09124660458565255,-0.002699612986414356
1760946523.0879374,nav_msgs/msg/Odometry,vehicle/Ground_Truth,std_msgs/msg/Header,world_ned,builtin_interfaces/msg/Time,87898105,1760946523,geometry_msgs/msg/PoseWithCovariance,geometry_msgs/msg/Pose,geometry_msgs/msg/Quaternion,0.9995797179417666,-0.017215446209604825,-0.0010289196846819443,-0.023301442349026983,geometry_msgs/msg/Point,24.17009028289211,-0.1348495124718142,3.974147339955814,geometry_msgs/msg/TwistWithCovariance,geometry_msgs/msg/Twist,geometry_msgs/msg/Vector3,-0.03523397913320906,-0.04230193316460535,-0.010177474640870834,geometry_msgs/msg/Vector3,0.15586496276010978,-0.10143813267120982,0.0063333074597145865
1760946523.1895468,nav_msgs/msg/Odometry,vehicle/Ground_Truth,std_msgs/msg/Header,world_ned,builtin_interfaces/msg/Time,189483594,1760946523,geometry_msgs/msg/PoseWithCovariance,geometry_msgs/msg/Pose,geometry_msgs/msg/Quaternion,0.9995314445934881,-0.019024915195590544,-0.0031106228268007793,-0.023775363220881324,geometry_msgs/msg/Point,24.184908268617857,-0.14625659387666773,3.975626208038664,geometry_msgs/msg/TwistWithCovariance,geometry_msgs/msg/Twist,geometry_msgs/msg/Vector3,-0.035233979133209074,-0.042301933164605364,-0.010177474640870836,geometry_msgs/msg/Vector3,0.15142031724876504,-0.11406791040195813,0.013729823095135818
1760946523.288043,nav_msgs/msg/Odometry,vehicle/Ground_Truth,std_msgs/msg/Header,world_ned,builtin_interfaces/msg/Time,287974668,1760946523,geometry_msgs/msg/PoseWithCovariance,geometry_msgs/msg/Pose,geometry_msgs/msg/Quaternion,0.9994753403188604,-0.020834235129026844,-0.005192301598442255,-0.024249097822339055,geometry_msgs/msg/Point,24.199600721204277,-0.15940000475049015,3.9780001185536387,geometry_msgs/msg/TwistWithCovariance,geometry_msgs/msg/Twist,geometry_msgs/msg/Vector3,-0.03523397913320907,-0.042301933164605364,-0.010177474640870836,geometry_msgs/msg/Vector3,0.14718066411784186,-0.1300951705897179,0.019879786339037166
1760946523.3863375,nav_msgs/msg/Odometry,vehicle/Ground_Truth,std_msgs/msg/Header,world_ned,builtin_interfaces/msg/Time,386278954,1760946523,geometry_msgs/msg/PoseWithCovariance,geometry_msgs/msg/Pose,geometry_msgs/msg/Quaternion,0.9994542542575252,-0.021628858065176535,-0.005691881164592578,-0.024310257796633,geometry_msgs/msg/Point,24.21299848280085,-0.17345132965665383,3.9809367479847135,geometry_msgs/msg/TwistWithCovariance,geometry_msgs/msg/Twist,geometry_msgs/msg/Vector3,-0.015139794516490711,-0.009502987197233791,-0.0011245041499584516,geometry_msgs/msg/Vector3,0.1413520866060578,-0.14644508191947594,0.02505374045147805
1760946523.4884279,nav_msgs/msg/Odometry,vehicle/Ground_Truth,std_msgs/msg/Header,world_ned,builtin_interfaces/msg/Time,488371098,1760946523,geometry_msgs/msg/PoseWithCovariance,geometry_msgs/msg/Pose,geometry_msgs/msg/Quaternion,0.9994334114565484,-0.022396580088937027,-0.006149536571973435,-0.024360469301624974,geometry_msgs/msg/Point,24.225858332511436,-0.18935093070618753,3.9844885220101274,geometry_msgs/msg/TwistWithCovariance,geometry_msgs/msg/Twist,geometry_msgs/msg/Vector3,-0.01513979451649071,-0.00950298719723379,-0.0011245041499584514,geometry_msgs/msg/Vector3,0.13160416838496822,-0.16156954829393685,0.02886931369928445
1760946523.5868514,nav_msgs/msg/Odometry,vehicle/Ground_Truth,std_msgs/msg/Header,world_ned,builtin_interfaces/msg/Time,586768303,1760946523,geometry_msgs/msg/PoseWithCovariance,geometry_msgs/msg/Pose,geometry_msgs/msg/Quaternion,0.9994117673086677,-0.02316428415509396,-0.006607187048648838,-0.024410661274364757,geometry_msgs/msg/Point,24.2374899461565,-0.206613650427681,3.988427849446863,geometry_msgs/msg/TwistWithCovariance,geometry_msgs/msg/Twist,geometry_msgs/msg/Vector3,-0.015139794516490711,-0.009502987197233791,-0.0011245041499584516,geometry_msgs/msg/Vector3,0.11787898989768539,-0.1746909814013344,0.030995638675905504
1760946523.6886513,nav_msgs/msg/Odometry,vehicle/Ground_Truth,std_msgs/msg/Header,world_ned,builtin_interfaces/msg/Time,688597229,1760946523,geometry_msgs/msg/PoseWithCovariance,geometry_msgs/msg/Pose,geometry_msgs/msg/Quaternion,0.9993893218312374,-0.023931969648098416,-0.0070648322276732674,-0.024460833674605276,geometry_msgs/msg/Point,24.247489752728708,-0.22498780083091546,3.99256074020669,geometry_msgs/msg/TwistWithCovariance,geometry_msgs/msg/Twist,geometry_msgs/msg/Vector3,-0.01513979451649071,-0.009502987197233791,-0.0011245041499584516,geometry_msgs/msg/Vector3,0.1002014361207951,-0.1854503466242234,0.03131534154268431
1760946523.787219,nav_msgs/msg/Odometry,vehicle/Ground_Truth,std_msgs/msg/Header,world_ned,builtin_interfaces/msg/Time,787182932,1760946523,geometry_msgs/msg/PoseWithCovariance,geometry_msgs/msg/Pose,geometry_msgs/msg/Quaternion,0.9993383244091963,-0.02487527239908037,-0.0064158457784307295,-0.025748225434751627,geometry_msgs/msg/Point,24.255515241955557,-0.24418146751789976,3.9966786051395755,geometry_msgs/msg/TwistWithCovariance,geometry_msgs/msg/Twist,geometry_msgs/msg/Vector3,-0.021402522437670386,0.023885694901642995,-0.03680836672252383,geometry_msgs/msg/Vector3,0.08083538713470391,-0.1927389305740875,0.029724565042986276
1760946523.8889308,nav_msgs/msg/Odometry,vehicle/Ground_Truth,std_msgs/msg/Header,world_ned,builtin_interfaces/msg/Time,888869330,1760946523,geometry_msgs/msg/PoseWithCovariance,geometry_msgs/msg/Pose,geometry_msgs/msg/Quaternion,0.999269009526736,-0.025901954089787124,-0.005240677903801615,-0.02762373379713727,geometry_msgs/msg/Point,24.261699336557776,-0.26378599895004723,4.00053707974704,geometry_msgs/msg/TwistWithCovariance,geometry_msgs/msg/Twist,geometry_msgs/msg/Vector3,-0.02140252243767039,0.023885694901643002,-0.036808366722523835,geometry_msgs/msg/Vector3,0.0650932676915141,-0.19454671564652445,0.025605429032381034
1760946523.9872096,nav_msgs/msg/Odometry,vehicle/Ground_Truth,std_msgs/msg/Header,world_ned,builtin_interfaces/msg/Time,987151516,1760946523,geometry_msgs/msg/PoseWithCovariance,geometry_msgs/msg/Pose,geometry_msgs/msg/Quaternion,0.999193741568103,-0.0269284814713911,-0.004065478808195695,-0.02949907759303648,geometry_msgs/msg/Point,24.266457355110763,-0.28327452171279016,4.003867223254518,geometry_msgs/msg/TwistWithCovariance,geometry_msgs/msg/Twist,geometry_msgs/msg/Vector3,-0.02140252243767039,0.023885694901643,-0.036808366722523835,geometry_msgs/msg/Vector3,0.05335773226736452,-0.1908870972619142,0.019060814431765966
1760946524.0887933,nav_msgs/msg/Odometry,vehicle/Ground_Truth,std_msgs/msg/Header,world_ned,builtin_interfaces/msg/Time,88739945,1760946524,geometry_msgs/msg/PoseWithCovariance,geometry_msgs/msg/Pose,geometry_msgs/msg/Quaternion,0.9991125209817012,-0.027954848428422854,-0.002890255492779935,-0.031374245650214294,geometry_msgs/msg/Point,24.270213607429604,-0.3021034451960846,4.00641673162206,geometry_msgs/msg/TwistWithCovariance,geometry_msgs/msg/Twist,geometry_msgs/msg/Vector3,-0.021402522437670386,0.023885694901642992,-0.03680836672252383,geometry_msgs/msg/Vector3,0.04562279832900836,-0.18210544307720225,0.010429466777860151
1760946524.187148,nav_msgs/msg/Odometry,vehicle/Ground_Truth,std_msgs/msg/Header,world_ned,builtin_interfaces/msg/Time,187023781,1760946524,geometry_msgs/msg/PoseWithCovariance,geometry_msgs/msg/Pose,geometry_msgs/msg/Quaternion,0.9990257972652464,-0.029067173738239648,-0.0013059618014988309,-0.03317906377797237,geometry_msgs/msg/Point,24.273397778543202,-0.3198709780248911,4.007983984080237,geometry_msgs/msg/TwistWithCovariance,geometry_msgs/msg/Twist,geometry_msgs/msg/Vector3,-0.02649799543769713,0.0446344257649655,-0.03259607735583583,geometry_msgs/msg/Vector3,0.041524569147178884,-0.16932642722383334,0.0004295274692508993
1760946524.2890334,nav_msgs/msg/Odometry,vehicle/Ground_Truth,std_msgs/msg/Header,world_ned,builtin_interfaces/msg/Time,288981477,1760946524,geometry_msgs/msg/PoseWithCovariance,geometry_msgs/msg/Pose,geometry_msgs/msg/Quaternion,0.9989314438740905,-0.030314344734119873,0.0009199505144150966,-0.03487355207054129,geometry_msgs/msg/Point,24.276321610879776,-0.3364512481888438,4.008588891667599,geometry_msgs/msg/TwistWithCovariance,geometry_msgs/msg/Twist,geometry_msgs/msg/Vector3,-0.02649799543769713,0.0446344257649655,-0.03259607735583583,geometry_msgs/msg/Vector3,0.039804142744048664,-0.15850078616641894,-0.00748320372901992
1760946524.387681,nav_msgs/msg/Odometry,vehicle/Ground_Truth,std_msgs/msg/Header,world_ned,builtin_interfaces/msg/Time,387626200,1760946524,geometry_msgs/msg/PoseWithCovariance,geometry_msgs/msg/Pose,geometry_msgs/msg/Quaternion,0.9988277102027451,-0.031561231068778166,0.0031458541917046474,-0.03656771288949888,geometry_msgs/msg/Point,24.27918412938063,-0.3521695860718526,4.008502269170353,geometry_msgs/msg/TwistWithCovariance,geometry_msgs/msg/Twist,geometry_msgs/msg/Vector3,-0.02649799543769713,0.044634425764965506,-0.032596077355835834,geometry_msgs/msg/Vector3,0.040052202035352466,-0.15055597865308648,-0.012854210933258975
1760946524.489436,nav_msgs/msg/Odometry,vehicle/Ground_Truth,std_msgs/msg/Header,world_ned,builtin_interfaces/msg/Time,489370167,1760946524,geometry_msgs/msg/PoseWithCovariance,geometry_msgs/msg/Pose,geometry_msgs/msg/Quaternion,0.9987145972253022,-0.03280782103355644,0.005371728328434565,-0.038261530326138535,geometry_msgs/msg/Point,24.282151891751827,-0.36725236281153717,4.00797901748495,geometry_msgs/msg/TwistWithCovariance,geometry_msgs/msg/Twist,geometry_msgs/msg/Vector3,-0.026497995437697125,0.044634425764965485,-0.03259607735583582,geometry_msgs/msg/Vector3,0.04222175577251194,-0.14520731236280934,-0.015876887930568778
1760946524.5876648,nav_msgs/msg/Odometry,vehicle/Ground_Truth,std_msgs/msg/Header,world_ned,builtin_interfaces/msg/Time,587613734,1760946524,geometry_msgs/msg/PoseWithCovariance,geometry_msgs/msg/Pose,geometry_msgs/msg/Quaternion,0.9985921060039281,-0.03405410292258538,0.007597552022947379,-0.039954988474984764,geometry_msgs/msg/Point,24.285700723770262,-0.38320001142024995,4.0072001194238664,geometry_msgs/msg/TwistWithCovariance,geometry_msgs/msg/Twist,geometry_msgs/msg/Vector3,-0.026497995437697132,0.04463442576496549,-0.03259607735583583,geometry_msgs/msg/Vector3,0.04683478845185248,-0.14224670766713013,-0.016504972341794773
1760946524.689306,nav_msgs/msg/Odometry,vehicle/Ground_Truth,std_msgs/msg/Header,world_ned,builtin_interfaces/msg/Time,689262552,1760946524,geometry_msgs/msg/PoseWithCovariance,geometry_msgs/msg/Pose,geometry_msgs/msg/Quaternion,0.9986043358167364,-0.034285054568786895,0.009080699129338425,-0.039133827113541846,geometry_msgs/msg/Point,24.28910538780862,-0.39662957240481167,4.006560332511727,geometry_msgs/msg/TwistWithCovariance,geometry_msgs/msg/Twist,geometry_msgs/msg/Vector3,-0.004080958969418309,0.027465858156364938,0.021860616502254696,geometry_msgs/msg/Vector3,0.050156830187094256,-0.14209249187547024,-0.015762937794152027
1760946524.787614,nav_msgs/msg/Odometry,vehicle/Ground_Truth,std_msgs/msg/Header,world_ned,builtin_interfaces/msg/Time,787562177,1760946524,geometry_msgs/msg/PoseWithCovariance,geometry_msgs/msg/Pose,geometry_msgs/msg/Quaternion,0.998626083046701,-0.034425082447980426,0.010497378585948748,-0.03808759640718359,geometry_msgs/msg/Point,24.293045977537005,-0.41131857589488124,4.005920918663018,geometry_msgs/msg/TwistWithCovariance,geometry_msgs/msg/Twist,geometry_msgs/msg/Vector3,-0.0040809589694183095,0.027465858156364945,0.0218606165022547,geometry_msgs/msg/Vector3,0.051144007295380836,-0.14395923242864453,-0.015286113203667797
1760946524.8892992,nav_msgs/msg/Odometry,vehicle/Ground_Truth,std_msgs/msg/Header,world_ned,builtin_interfaces/msg/Time,889238286,1760946524,geometry_msgs/msg/PoseWithCovariance,geometry_msgs/msg/Pose,geometry_msgs/msg/Quaternion,0.9986447129054448,-0.0345650028637659,0.011914025273310706,-0.03704124680429335,geometry_msgs/msg/Point,24.296954788480637,-0.426310678363239,4.005319777017826,geometry_msgs/msg/TwistWithCovariance,geometry_msgs/msg/Twist,geometry_msgs/msg/Vector3,-0.0040809589694183095,0.02746585815636494,0.021860616502254696,geometry_msgs/msg/Vector3,0.049249449887647186,-0.1479730613409607,-0.015226454526892322
1760946524.9877648,nav_msgs/msg/Odometry,vehicle/Ground_Truth,std_msgs/msg/Header,world_ned,builtin_interfaces/msg/Time,987681429,1760946524,geometry_msgs/msg/PoseWithCovariance,geometry_msgs/msg/Pose,geometry_msgs/msg/Quaternion,0.9986602253348117,-0.03470481537935861,0.013330634769134436,-0.03599478157121829,geometry_msgs/msg/Point,24.30051894829767,-0.441759010870362,4.004736705000317,geometry_msgs/msg/TwistWithCovariance,geometry_msgs/msg/Twist,geometry_msgs/msg/Vector3,-0.004080958969418309,0.027465858156364938,0.021860616502254696,geometry_msgs/msg/Vector3,0.0444912029367096,-0.1540011670658223,-0.01561341887769339
1760946525.0892446,nav_msgs/msg/Odometry,vehicle/Ground_Truth,std_msgs/msg/Header,world_ned,builtin_interfaces/msg/Time,89195440,1760946525,geometry_msgs/msg/PoseWithCovariance,geometry_msgs/msg/Pose,geometry_msgs/msg/Quaternion,0.9987589519751657,-0.03324959492927978,0.013700453520806776,-0.03445747901155302,geometry_msgs/msg/Point,24.30345444547751,-0.45787257532932024,4.004147952161964,geometry_msgs/msg/TwistWithCovariance,geometry_msgs/msg/Twist,geometry_msgs/msg/Vector3,0.05054574776717559,-0.006356594871607723,0.03794857921706607,geometry_msgs/msg/Vector3,0.03677565219040523,-0.1620605713460987,-0.016035185415752728
1760946525.1877642,nav_msgs/msg/Odometry,vehicle/Ground_Truth,std_msgs/msg/Header,world_ned,builtin_interfaces/msg/Time,187708814,1760946525,geometry_msgs/msg/PoseWithCovariance,geometry_msgs/msg/Pose,geometry_msgs/msg/Quaternion,0.9989076657071403,-0.030710490503512478,0.013358988634197249,-0.03258647859491908,geometry_msgs/msg/Point,24.305448527870343,-0.4748279973561791,4.003525193740256,geometry_msgs/msg/TwistWithCovariance,geometry_msgs/msg/Twist,geometry_msgs/msg/Vector3,0.050545747767175575,-0.00635659487160772,0.03794857921706606,geometry_msgs/msg/Vector3,0.02579054462079201,-0.17270571678811816,-0.01666577077186835
1760946525.2861688,nav_msgs/msg/Odometry,vehicle/Ground_Truth,std_msgs/msg/Header,world_ned,builtin_interfaces/msg/Time,286111969,1760946525,geometry_msgs/msg/PoseWithCovariance,geometry_msgs/msg/Pose,geometry_msgs/msg/Quaternion,0.9990463040489572,-0.02817107631921145,0.013017389003379355,-0.030715149497770326,geometry_msgs/msg/Point,24.30616839481337,-0.4928992839642887,4.002832699498047,geometry_msgs/msg/TwistWithCovariance,geometry_msgs/msg/Twist,geometry_msgs/msg/Vector3,0.050545747767175575,-0.006356594871607722,0.037948579217066056,geometry_msgs/msg/Vector3,0.01145727823512388,-0.18606416489222052,-0.01776726109106548
1760946525.3881388,nav_msgs/msg/Odometry,vehicle/Ground_Truth,std_msgs/msg/Header,world_ned,builtin_interfaces/msg/Time,388056625,1760946525,geometry_msgs/msg/PoseWithCovariance,geometry_msgs/msg/Pose,geometry_msgs/msg/Quaternion,0.9991748656022537,-0.025631377989944006,0.012675658073866326,-0.02884351059509537,geometry_msgs/msg/Point,24.305254884785803,-0.5123530928645552,4.002034821490117,geometry_msgs/msg/TwistWithCovariance,geometry_msgs/msg/Twist,geometry_msgs/msg/Vector3,0.050545747767175575,-0.006356594871607721,0.03794857921706606,geometry_msgs/msg/Vector3,-0.006544169404389786,-0.20238400446816932,-0.019330450128295075
1760946525.4866946,nav_msgs/msg/Odometry,vehicle/Ground_Truth,std_msgs/msg/Header,world_ned,builtin_interfaces/msg/Time,486647028,1760946525,geometry_msgs/msg/PoseWithCovariance,geometry_msgs/msg/Pose,geometry_msgs/msg/Quaternion,0.9993076686623914,-0.022527636975441148,0.01250025713647635,-0.02684087361396552,geometry_msgs/msg/Point,24.302311263684896,-0.5334859223718577,4.001093657239086,geometry_msgs/msg/TwistWithCovariance,geometry_msgs/msg/Twist,geometry_msgs/msg/Vector3,0.104942164597179,0.011058397952258277,0.05179579967922032,geometry_msgs/msg/Vector3,-0.028606814641984588,-0.22191467925913727,-0.02107492730111777
1760946525.5885272,nav_msgs/msg/Odometry,vehicle/Ground_Truth,std_msgs/msg/Header,world_ned,builtin_interfaces/msg/Time,588447595,1760946525,geometry_msgs/msg/PoseWithCovariance,geometry_msgs/msg/Pose,geometry_msgs/msg/Quaternion,0.9994711980964588,-0.017237118081714218,0.012970033534319138,-0.02433072473201133,geometry_msgs/msg/Point,24.297161384296594,-0.556410480426021,4.000033424154884,geometry_msgs/msg/TwistWithCovariance,geometry_msgs/msg/Twist,geometry_msgs/msg/Vector3,0.104942164597179,0.01105839795225827,0.051795799679220315,geometry_msgs/msg/Vector3,-0.04928111518242453,-0.23915682929895385,-0.02030480215519586
1760946525.6867661,nav_msgs/msg/Odometry,vehicle/Ground_Truth,std_msgs/msg/Header,world_ned,builtin_interfaces/msg/Time,686730611,1760946525,geometry_msgs/msg/PoseWithCovariance,geometry_msgs/msg/Pose,geometry_msgs/msg/Quaternion,0.9996002079249028,-0.011946003854659193,0.013439361974841675,-0.021819735518671377,geometry_msgs/msg/Point,24.2902330287884,-0.5807231946528102,3.999028157578044,geometry_msgs/msg/TwistWithCovariance,geometry_msgs/msg/Twist,geometry_msgs/msg/Vector3,0.10494216459717902,0.011058397952258275,0.051795799679220315,geometry_msgs/msg/Vector3,-0.0650303642847072,-0.25085409975959094,-0.016959373310648777
1760946525.7884996,nav_msgs/msg/Odometry,vehicle/Ground_Truth,std_msgs/msg/Header,world_ned,builtin_interfaces/msg/Time,788442330,1760946525,geometry_msgs/msg/PoseWithCovariance,geometry_msgs/msg/Pose,geometry_msgs/msg/Quaternion,0.9996946936919993,-0.006654477038080629,0.013908226248432477,-0.01930799269815091,geometry_msgs/msg/Point,24.282100266494137,-0.6058492438875255,3.998281722403286,geometry_msgs/msg/TwistWithCovariance,geometry_msgs/msg/Twist,geometry_msgs/msg/Vector3,0.10494216459717899,0.011058397952258272,0.0517957996792203,geometry_msgs/msg/Vector3,-0.07534002979097486,-0.256613009272433,-0.011127969181841063
1760946525.886807,nav_msgs/msg/Odometry,vehicle/Ground_Truth,std_msgs/msg/Header,world_ned,builtin_interfaces/msg/Time,886721916,1760946525,geometry_msgs/msg/PoseWithCovariance,geometry_msgs/msg/Pose,geometry_msgs/msg/Quaternion,0.9997546521344107,-0.0013627203900458704,0.014376610161526089,-0.01679558302070686,geometry_msgs/msg/Point,24.272600723379853,-0.633400018876791,3.998000119149685,geometry_msgs/msg/TwistWithCovariance,geometry_msgs/msg/Twist,geometry_msgs/msg/Vector3,0.10494216459717899,0.011058397952258272,0.05179579967922031,geometry_msgs/msg/Vector3,-0.07993178116396554,-0.25601059102680407,-0.0024257874278017497
1760946525.9885118,nav_msgs/msg/Odometry,vehicle/Ground_Truth,std_msgs/msg/Header,world_ned,builtin_interfaces/msg/Time,988427394,1760946525,geometry_msgs/msg/PoseWithCovariance,geometry_msgs/msg/Pose,geometry_msgs/msg/Quaternion,0.9997423846611004,0.0013248160974682658,0.016154798746413825,-0.01588809780644136,geometry_msgs/msg/Point,24.26458371057836,-0.6564002484351884,3.9982909109366154,geometry_msgs/msg/TwistWithCovariance,geometry_msgs/msg/Twist,geometry_msgs/msg/Vector3,0.04803018317045948,0.03880739012427818,0.01588281895402507,geometry_msgs/msg/Vector3,-0.07821497515507034,-0.25195636023971735,0.0030729724346653213
1760946526.0869727,nav_msgs/msg/Odometry,vehicle/Ground_Truth,std_msgs/msg/Header,world_ned,builtin_interfaces/msg/Time,86885959,1760946526,geometry_msgs/msg/PoseWithCovariance,geometry_msgs/msg/Pose,geometry_msgs/msg/Quaternion,0.9997153973008324,0.003769109233180798,0.018055185522306776,-0.015130383041494099,geometry_msgs/msg/Point,24.25630557620879,-0.6810607764798603,3.998866666790528,geometry_msgs/msg/TwistWithCovariance,geometry_msgs/msg/Twist,geometry_msgs/msg/Vector3,0.048030183170459484,0.03880739012427819,0.01588281895402507,geometry_msgs/msg/Vector3,-0.07155509150994277,-0.24599558296845633,0.004884043251004562
1760946526.1887803,nav_msgs/msg/Odometry,vehicle/Ground_Truth,std_msgs/msg/Header,world_ned,builtin_interfaces/msg/Time,188729826,1760946526,geometry_msgs/msg/PoseWithCovariance,geometry_msgs/msg/Pose,geometry_msgs/msg/Quaternion,0.9996782519335696,0.006213364071356036,0.019955388841286066,-0.01437251453825493,geometry_msgs/msg/Point,24.248988659376792,-0.7050876807663196,3.9993026111085905,geometry_msgs/msg/TwistWithCovariance,geometry_msgs/msg/Twist,geometry_msgs/msg/Vector3,0.048030183170459484,0.03880739012427819,0.015882818954025078,geometry_msgs/msg/Vector3,-0.060132373649389136,-0.23853999840654955,0.0027080332399366394
1760946526.2873716,nav_msgs/msg/Odometry,vehicle/Ground_Truth,std_msgs/msg/Header,world_ned,builtin_interfaces/msg/Time,287335069,1760946526,geometry_msgs/msg/PoseWithCovariance,geometry_msgs/msg/Pose,geometry_msgs/msg/Quaternion,0.9996309489367426,0.008657555776166441,0.021855389395574965,-0.013614499997347353,geometry_msgs/msg/Point,24.243083231566054,-0.728358398992463,3.999190431875259,geometry_msgs/msg/TwistWithCovariance,geometry_msgs/msg/Twist,geometry_msgs/msg/Vector3,0.04803018317045948,0.038807390124278196,0.015882818954025074,geometry_msgs/msg/Vector3,-0.04407361341170875,-0.22973430903910355,-0.003287692879757884
1760946526.3859973,nav_msgs/msg/Odometry,vehicle/Ground_Truth,std_msgs/msg/Header,world_ned,builtin_interfaces/msg/Time,385952522,1760946526,geometry_msgs/msg/PoseWithCovariance,geometry_msgs/msg/Pose,geometry_msgs/msg/Quaternion,0.9995687150830794,0.009591025181622696,0.023740269967203284,-0.0143803909895164,geometry_msgs/msg/Point,24.23900491111427,-0.7507214047080912,3.998159256894838,geometry_msgs/msg/TwistWithCovariance,geometry_msgs/msg/Twist,geometry_msgs/msg/Vector3,-0.001469801520425217,0.0371436414071185,-0.03637583404889316,geometry_msgs/msg/Vector3,-0.024207176569779047,-0.22016482277878788,-0.012521818801309854
1760946526.4880948,nav_msgs/msg/Odometry,vehicle/Ground_Truth,std_msgs/msg/Header,world_ned,builtin_interfaces/msg/Time,488045536,1760946526,geometry_msgs/msg/PoseWithCovariance,geometry_msgs/msg/Pose,geometry_msgs/msg/Quaternion,0.9994958028925492,0.009501071870079552,0.02561488209923129,-0.016178610834691944,geometry_msgs/msg/Point,24.236753310783715,-0.7721974630782951,3.9961754970869334,geometry_msgs/msg/TwistWithCovariance,geometry_msgs/msg/Twist,geometry_msgs/msg/Vector3,-0.0014698015204252174,0.0371436414071185,-0.03637583404889316,geometry_msgs/msg/Vector3,-0.00636626144407681,-0.21123076748123884,-0.020397675369504247
1760946526.5866284,nav_msgs/msg/Odometry,vehicle/Ground_Truth,std_msgs/msg/Header,world_ned,builtin_interfaces/msg/Time,586494541,1760946526,geometry_msgs/msg/PoseWithCovariance,geometry_msgs/msg/Pose,geometry_msgs/msg/Quaternion,0.9994161329379401,0.009411054320145112,0.02748932104460814,-0.017976721293479537,geometry_msgs/msg/Point,24.236043082390303,-0.7928343297751945,3.99345789905746,geometry_msgs/msg/TwistWithCovariance,geometry_msgs/msg/Twist,geometry_msgs/msg/Vector3,-0.0014698015204252174,0.0371436414071185,-0.036375834048893156,geometry_msgs/msg/Vector3,0.008491332634462306,-0.20299872296604085,-0.026108897628574573
1760946526.6884615,nav_msgs/msg/Odometry,vehicle/Ground_Truth,std_msgs/msg/Header,world_ned,builtin_interfaces/msg/Time,688405217,1760946526,geometry_msgs/msg/PoseWithCovariance,geometry_msgs/msg/Pose,geometry_msgs/msg/Quaternion,0.9993297057579142,0.00932097314044382,0.029363574129928245,-0.019774710208543465,geometry_msgs/msg/Point,24.236593440113346,-0.8127505288861193,3.990212837525977,geometry_msgs/msg/TwistWithCovariance,geometry_msgs/msg/Twist,geometry_msgs/msg/Vector3,-0.001469801520425217,0.03714364140711849,-0.03637583404889315,geometry_msgs/msg/Vector3,0.020519250148362943,-0.19542289079412856,-0.02977501262097241
1760946526.787074,nav_msgs/msg/Odometry,vehicle/Ground_Truth,std_msgs/msg/Header,world_ned,builtin_interfaces/msg/Time,786965950,1760946526,geometry_msgs/msg/PoseWithCovariance,geometry_msgs/msg/Pose,geometry_msgs/msg/Quaternion,0.9992518457250338,0.008740768145277767,0.03088255373594857,-0.02157812925371499,geometry_msgs/msg/Point,24.238134061336698,-0.8319526624925506,3.986656198169726,geometry_msgs/msg/TwistWithCovariance,geometry_msgs/msg/Twist,geometry_msgs/msg/Vector3,-0.0560419500291899,-0.0042566785446123785,-0.038311058783348846,geometry_msgs/msg/Vector3,0.029774318470169352,-0.1885222941184171,-0.03171833705998543
1760946526.8890402,nav_msgs/msg/Odometry,vehicle/Ground_Truth,std_msgs/msg/Header,world_ned,builtin_interfaces/msg/Time,888948716,1760946526,geometry_msgs/msg/PoseWithCovariance,geometry_msgs/msg/Pose,geometry_msgs/msg/Quaternion,0.9992358003546867,0.005877258675024963,0.03074692171133508,-0.023407262233599978,geometry_msgs/msg/Point,24.240432719294816,-0.8506157722127676,3.9828966818473406,geometry_msgs/msg/TwistWithCovariance,geometry_msgs/msg/Twist,geometry_msgs/msg/Vector3,-0.0560419500291899,-0.0042566785446123785,-0.03831105878334884,geometry_msgs/msg/Vector3,0.0371516675952357,-0.18402565816746697,-0.03478356253504132
1760946526.9873161,nav_msgs/msg/Odometry,vehicle/Ground_Truth,std_msgs/msg/Header,world_ned,builtin_interfaces/msg/Time,987273042,1760946526,geometry_msgs/msg/PoseWithCovariance,geometry_msgs/msg/Pose,geometry_msgs/msg/Quaternion,0.9992081997541515,0.0030136812397566224,0.03061093412724602,-0.025236124530326403,geometry_msgs/msg/Point,24.243330094299623,-0.8690650530868089,3.978835513256433,geometry_msgs/msg/TwistWithCovariance,geometry_msgs/msg/Twist,geometry_msgs/msg/Vector3,-0.05604195002918991,-0.004256678544612379,-0.03831105878334885,geometry_msgs/msg/Vector3,0.04329199632649859,-0.18304611935219312,-0.03918595738984803
1760946527.0890834,nav_msgs/msg/Odometry,vehicle/Ground_Truth,std_msgs/msg/Header,world_ned,builtin_interfaces/msg/Time,89029870,1760946527,geometry_msgs/msg/PoseWithCovariance,geometry_msgs/msg/Pose,geometry_msgs/msg/Quaternion,0.9991690442426034,0.000150068954075111,0.030474592556250246,-0.027064694994806834,geometry_msgs/msg/Point,24.24668706006316,-0.8876838685258512,3.9743293011133023,geometry_msgs/msg/TwistWithCovariance,geometry_msgs/msg/Twist,geometry_msgs/msg/Vector3,-0.056041950029189894,-0.0042566785446123785,-0.03831105878334884,geometry_msgs/msg/Vector3,0.04828470143911561,-0.18569205145710693,-0.04509121207481778
1760946527.187901,nav_msgs/msg/Odometry,vehicle/Ground_Truth,std_msgs/msg/Header,world_ned,builtin_interfaces/msg/Time,187637563,1760946527,geometry_msgs/msg/PoseWithCovariance,geometry_msgs/msg/Pose,geometry_msgs/msg/Quaternion,0.9991183342728395,-0.0027135450670139147,0.03033789857501007,-0.02889295248132832,geometry_msgs/msg/Point,24.25035177338853,-0.906803139222149,3.969238580977791,geometry_msgs/msg/TwistWithCovariance,geometry_msgs/msg/Twist,geometry_msgs/msg/Vector3,-0.0560419500291899,-0.0042566785446123785,-0.038311058783348846,geometry_msgs/msg/Vector3,0.05216112740792844,-0.19221211093796137,-0.0527161306635675
1760946527.2863243,nav_msgs/msg/Odometry,vehicle/Ground_Truth,std_msgs/msg/Header,world_ned,builtin_interfaces/msg/Time,286222626,1760946527,geometry_msgs/msg/PoseWithCovariance,geometry_msgs/msg/Pose,geometry_msgs/msg/Quaternion,0.9990549036913503,-0.0059784344754826605,0.02778351290818286,-0.032888206730832335,geometry_msgs/msg/Point,24.25414889795301,-0.9267768996533797,3.963445571845698,geometry_msgs/msg/TwistWithCovariance,geometry_msgs/msg/Twist,geometry_msgs/msg/Vector3,-0.06286445645658512,-0.06668363830772416,-0.09470285933745648,geometry_msgs/msg/Vector3,0.054341358801808466,-0.20092494602771513,-0.06087540312731921
1760946527.3881054,nav_msgs/msg/Odometry,vehicle/Ground_Truth,std_msgs/msg/Header,world_ned,builtin_interfaces/msg/Time,388036144,1760946527,geometry_msgs/msg/PoseWithCovariance,geometry_msgs/msg/Pose,geometry_msgs/msg/Quaternion,0.9989513416804898,-0.009359408451108128,0.024527294454325374,-0.03751040195659626,geometry_msgs/msg/Point,24.257702011770284,-0.9476435067309948,3.9571998548865714,geometry_msgs/msg/TwistWithCovariance,geometry_msgs/msg/Twist,geometry_msgs/msg/Vector3,-0.0628644564565851,-0.06668363830772414,-0.09470285933745644,geometry_msgs/msg/Vector3,0.05158744833289576,-0.20810816880423078,-0.06502735004996293
1760946527.4866107,nav_msgs/msg/Odometry,vehicle/Ground_Truth,std_msgs/msg/Header,world_ned,builtin_interfaces/msg/Time,486529108,1760946527,geometry_msgs/msg/PoseWithCovariance,geometry_msgs/msg/Pose,geometry_msgs/msg/Quaternion,0.9988044158337749,-0.012739976140826744,0.021270011286376178,-0.04213096887991421,geometry_msgs/msg/Point,24.26050691366688,-0.9691984653720722,3.9509799945377946,geometry_msgs/msg/TwistWithCovariance,geometry_msgs/msg/Twist,geometry_msgs/msg/Vector3,-0.0628644564565851,-0.06668363830772413,-0.09470285933745644,geometry_msgs/msg/Vector3,0.04343058350899222,-0.21363684421478582,-0.06443533394719167
1760946527.5884104,nav_msgs/msg/Odometry,vehicle/Ground_Truth,std_msgs/msg/Header,world_ned,builtin_interfaces/msg/Time,588363865,1760946527,geometry_msgs/msg/PoseWithCovariance,geometry_msgs/msg/Pose,geometry_msgs/msg/Quaternion,0.9986141325291621,-0.016119990796367317,0.018011804800904422,-0.04674970692494491,geometry_msgs/msg/Point,24.262049048076225,-0.9911827268950542,3.94529629362828,geometry_msgs/msg/TwistWithCovariance,geometry_msgs/msg/Twist,geometry_msgs/msg/Vector3,-0.06286445645658512,-0.06668363830772414,-0.09470285933745644,geometry_msgs/msg/Vector3,0.029992735398547545,-0.21754794636520577,-0.05887140706890479
1760946527.686992,nav_msgs/msg/Odometry,vehicle/Ground_Truth,std_msgs/msg/Header,world_ned,builtin_interfaces/msg/Time,686963248,1760946527,geometry_msgs/msg/PoseWithCovariance,geometry_msgs/msg/Pose,geometry_msgs/msg/Quaternion,0.998507699397379,-0.017495731259230724,0.014905411706343996,-0.04953889717911055,geometry_msgs/msg/Point,24.261859840609507,-1.0133177853639894,3.94063274636745,geometry_msgs/msg/TwistWithCovariance,geometry_msgs/msg/Twist,geometry_msgs/msg/Vector3,0.007218872582250395,-0.05898662033835793,-0.028120895123012926,geometry_msgs/msg/Vector3,0.011799993762958535,-0.2197591939665672,-0.04838261328197055
1760946527.7888772,nav_msgs/msg/Odometry,vehicle/Ground_Truth,std_msgs/msg/Header,world_ned,builtin_interfaces/msg/Time,788820176,1760946527,geometry_msgs/msg/PoseWithCovariance,geometry_msgs/msg/Pose,geometry_msgs/msg/Quaternion,0.9984829296779708,-0.017302315721983867,0.011918225050753453,-0.05089621718745689,geometry_msgs/msg/Point,24.259801994736918,-1.0353031745676478,3.9371382946808913,geometry_msgs/msg/TwistWithCovariance,geometry_msgs/msg/Twist,geometry_msgs/msg/Vector3,0.007218872582250394,-0.058986620338357915,-0.02812089512301292,geometry_msgs/msg/Vector3,-0.006477490296862956,-0.21793171879822937,-0.03732845138153178
1760946527.8873372,nav_msgs/msg/Odometry,vehicle/Ground_Truth,std_msgs/msg/Header,world_ned,builtin_interfaces/msg/Time,887298739,1760946527,geometry_msgs/msg/PoseWithCovariance,geometry_msgs/msg/Pose,geometry_msgs/msg/Quaternion,0.9984473727235917,-0.0171087132570092,0.008930909635130787,-0.05225298733216729,geometry_msgs/msg/Point,24.256024711109923,-1.0566280089071294,3.9347201870485735,geometry_msgs/msg/TwistWithCovariance,geometry_msgs/msg/Twist,geometry_msgs/msg/Vector3,0.007218872582250393,-0.05898662033835791,-0.028120895123012912,geometry_msgs/msg/Vector3,-0.023450362715844532,-0.21181749599613378,-0.02708166209792917
1760946527.988966,nav_msgs/msg/Odometry,vehicle/Ground_Truth,std_msgs/msg/Header,world_ned,builtin_interfaces/msg/Time,988914790,1760946527,geometry_msgs/msg/PoseWithCovariance,geometry_msgs/msg/Pose,geometry_msgs/msg/Quaternion,0.9984010289183858,-0.01691492595591543,0.005943497733311137,-0.05360919295520709,geometry_msgs/msg/Point,24.250682618344044,-1.076957350681259,3.9332498435460965,geometry_msgs/msg/TwistWithCovariance,geometry_msgs/msg/Twist,geometry_msgs/msg/Vector3,0.007218872582250395,-0.058986620338357915,-0.02812089512301292,geometry_msgs/msg/Vector3,-0.03906916597331627,-0.20182200577752227,-0.01770587820032785
1760946528.0872307,nav_msgs/msg/Odometry,vehicle/Ground_Truth,std_msgs/msg/Header,world_ned,builtin_interfaces/msg/Time,87132317,1760946528,geometry_msgs/msg/PoseWithCovariance,geometry_msgs/msg/Pose,geometry_msgs/msg/Quaternion,0.9984173136941455,-0.016628670480970997,0.00402746160505819,-0.05357363705052357,geometry_msgs/msg/Point,24.24395048084755,-1.0959214771041017,3.932607482857183,geometry_msgs/msg/TwistWithCovariance,geometry_msgs/msg/Twist,geometry_msgs/msg/Vector3,0.009533165906206049,0.023007102262091707,0.08196315697354607,geometry_msgs/msg/Vector3,-0.05362785356383923,-0.18860261751718915,-0.009368945122944899
1760946528.188919,nav_msgs/msg/Odometry,vehicle/Ground_Truth,std_msgs/msg/Header,world_ned,builtin_interfaces/msg/Time,188853016,1760946528,geometry_msgs/msg/PoseWithCovariance,geometry_msgs/msg/Pose,geometry_msgs/msg/Quaternion,0.998630980786355,-0.016074537303582975,0.00521844697410562,-0.04950294208768567,geometry_msgs/msg/Point,24.236112611751356,-1.113516759844856,3.932681087303753,geometry_msgs/msg/TwistWithCovariance,geometry_msgs/msg/Twist,geometry_msgs/msg/Vector3,0.009533165906206049,0.0230071022620917,0.08196315697354607,geometry_msgs/msg/Vector3,-0.06507484549883377,-0.1782165653351002,-0.002358876570377255
1760946528.2874818,nav_msgs/msg/Odometry,vehicle/Ground_Truth,std_msgs/msg/Header,world_ned,builtin_interfaces/msg/Time,287439490,1760946528,geometry_msgs/msg/PoseWithCovariance,geometry_msgs/msg/Pose,geometry_msgs/msg/Quaternion,0.9988263312678985,-0.015520109291518426,0.006409336627855206,-0.04543133915570119,geometry_msgs/msg/Point,24.227629862395922,-1.1302843886923288,3.9333929847517917,geometry_msgs/msg/TwistWithCovariance,geometry_msgs/msg/Twist,geometry_msgs/msg/Vector3,0.009533165906206046,0.023007102262091697,0.08196315697354604,geometry_msgs/msg/Vector3,-0.07136169067088378,-0.17302472380578957,0.003862761296576857
1760946528.3859177,nav_msgs/msg/Odometry,vehicle/Ground_Truth,std_msgs/msg/Header,world_ned,builtin_interfaces/msg/Time,385844095,1760946528,geometry_msgs/msg/PoseWithCovariance,geometry_msgs/msg/Pose,geometry_msgs/msg/Quaternion,0.9990033615557119,-0.014965396613942208,0.007600108723341692,-0.041358902934777675,geometry_msgs/msg/Point,24.218931123376283,-1.1468035674630697,3.9346960091024834,geometry_msgs/msg/TwistWithCovariance,geometry_msgs/msg/Twist,geometry_msgs/msg/Vector3,0.009533165906206049,0.023007102262091704,0.08196315697354607,geometry_msgs/msg/Vector3,-0.07286223001413826,-0.17290580218485344,0.009610592591743017
1760946528.4878747,nav_msgs/msg/Odometry,vehicle/Ground_Truth,std_msgs/msg/Header,world_ned,builtin_interfaces/msg/Time,487822551,1760946528,geometry_msgs/msg/PoseWithCovariance,geometry_msgs/msg/Pose,geometry_msgs/msg/Quaternion,0.9991620684027549,-0.014410409445240163,0.008790741419756264,-0.037285708120405256,geometry_msgs/msg/Point,24.210448635837423,-1.1636485109142478,3.9365677690586773,geometry_msgs/msg/TwistWithCovariance,geometry_msgs/msg/Twist,geometry_msgs/msg/Vector3,0.009533165906206047,0.023007102262091697,0.08196315697354606,geometry_msgs/msg/Vector3,-0.06944224112863176,-0.17828846413226046,0.01515462279464069
1760946528.5862906,nav_msgs/msg/Odometry,vehicle/Ground_Truth,std_msgs/msg/Header,world_ned,builtin_interfaces/msg/Time,586197346,1760946528,geometry_msgs/msg/PoseWithCovariance,geometry_msgs/msg/Pose,geometry_msgs/msg/Quaternion,0.9993071786872342,-0.01470676409986935,0.010689474346388724,-0.03247474175523057,geometry_msgs/msg/Point,24.202646226708456,-1.1813851536429794,3.9389925881958314,geometry_msgs/msg/TwistWithCovariance,geometry_msgs/msg/Twist,geometry_msgs/msg/Vector3,-0.013683458121767262,0.040518320627442934,0.10138928291908757,geometry_msgs/msg/Vector3,-0.061630079574392996,-0.18714731324444797,0.019731233135616276
1760946528.6879432,nav_msgs/msg/Odometry,vehicle/Ground_Truth,std_msgs/msg/Header,world_ned,builtin_interfaces/msg/Time,687887505,1760946528,geometry_msgs/msg/PoseWithCovariance,geometry_msgs/msg/Pose,geometry_msgs/msg/Quaternion,0.9994249539197545,-0.015270200218714976,0.012810375941196389,-0.027431309411367313,geometry_msgs/msg/Point,24.195931420340973,-1.1999460155449995,3.9418076029621205,geometry_msgs/msg/TwistWithCovariance,geometry_msgs/msg/Twist,geometry_msgs/msg/Vector3,-0.013683458121767262,0.040518320627442934,0.10138928291908757,geometry_msgs/msg/Vector3,-0.05093586861491087,-0.19265703633253128,0.022042370469110666
1760946528.7863247,nav_msgs/msg/Odometry,vehicle/Ground_Truth,std_msgs/msg/Header,world_ned,builtin_interfaces/msg/Time,786255501,1760946528,geometry_msgs/msg/PoseWithCovariance,geometry_msgs/msg/Pose,geometry_msgs/msg/Quaternion,0.9995124807918367,-0.015833174173274712,0.014930889820180778,-0.02238704683794968,geometry_msgs/msg/Point,24.190605450819334,-1.2189817561066798,3.944756207403045,geometry_msgs/msg/TwistWithCovariance,geometry_msgs/msg/Twist,geometry_msgs/msg/Vector3,-0.013683458121767265,0.040518320627442934,0.10138928291908757,geometry_msgs/msg/Vector3,-0.03749518574651643,-0.19400557143783564,0.02187411355859892
1760946528.888335,nav_msgs/msg/Odometry,vehicle/Ground_Truth,std_msgs/msg/Header,world_ned,builtin_interfaces/msg/Time,887979370,1760946528,geometry_msgs/msg/PoseWithCovariance,geometry_msgs/msg/Pose,geometry_msgs/msg/Quaternion,0.9995697566544132,-0.01639566892471205,0.017050951804368646,-0.017342106703442207,geometry_msgs/msg/Point,24.186935684495793,-1.2380865249484228,3.9475581657395526,geometry_msgs/msg/TwistWithCovariance,geometry_msgs/msg/Twist,geometry_msgs/msg/Vector3,-0.013683458121767265,0.040518320627442934,0.1013892829190876,geometry_msgs/msg/Vector3,-0.02177619298102384,-0.1910568062014213,0.01919192495300418
1760946528.9865296,nav_msgs/msg/Odometry,vehicle/Ground_Truth,std_msgs/msg/Header,world_ned,builtin_interfaces/msg/Time,986455235,1760946528,geometry_msgs/msg/PoseWithCovariance,geometry_msgs/msg/Pose,geometry_msgs/msg/Quaternion,0.999579110588596,-0.017049423956995886,0.01866773016913237,-0.014227953752326458,geometry_msgs/msg/Point,24.18512355039933,-1.256766621245695,3.9499314264546377,geometry_msgs/msg/TwistWithCovariance,geometry_msgs/msg/Twist,geometry_msgs/msg/Vector3,-0.01564946671734675,0.02183013574469778,0.02444726740943911,geometry_msgs/msg/Vector3,-0.0040228938823377814,-0.18533133710124883,0.014441293941281592
1760946529.0882404,nav_msgs/msg/Odometry,vehicle/Ground_Truth,std_msgs/msg/Header,world_ned,builtin_interfaces/msg/Time,88199153,1760946529,geometry_msgs/msg/PoseWithCovariance,geometry_msgs/msg/Pose,geometry_msgs/msg/Quaternion,0.9995611393979349,-0.01779311640486477,0.019790607444040136,-0.013010206420384005,geometry_msgs/msg/Point,24.185203689660984,-1.2751181948030614,3.951731810617318,geometry_msgs/msg/TwistWithCovariance,geometry_msgs/msg/Twist,geometry_msgs/msg/Vector3,-0.01564946671734675,0.02183013574469778,0.02444726740943911,geometry_msgs/msg/Vector3,0.01451440430235098,-0.18338393298723987,0.008891240878725826
1760946529.1864796,nav_msgs/msg/Odometry,vehicle/Ground_Truth,std_msgs/msg/Header,world_ned,builtin_interfaces/msg/Time,186420811,1760946529,geometry_msgs/msg/PoseWithCovariance,geometry_msgs/msg/Pose,geometry_msgs/msg/Quaternion,0.999539872490909,-0.01853675018592482,0.020913419466085093,-0.0117924161916676,geometry_msgs/msg/Point,24.18717309605408,-1.2935731976581872,3.9528953269006637,geometry_msgs/msg/TwistWithCovariance,geometry_msgs/msg/Twist,geometry_msgs/msg/Vector3,-0.01564946671734675,0.021830135744697776,0.024447267409439106,geometry_msgs/msg/Vector3,0.03340341301969512,-0.18590029506397496,0.002617803752263897
1760946529.288035,nav_msgs/msg/Odometry,vehicle/Ground_Truth,std_msgs/msg/Header,world_ned,builtin_interfaces/msg/Time,288007952,1760946529,geometry_msgs/msg/PoseWithCovariance,geometry_msgs/msg/Pose,geometry_msgs/msg/Quaternion,0.999515309937639,-0.019280322848291728,0.022036162533170124,-0.010574587081428619,geometry_msgs/msg/Point,24.191069162261286,-1.3125336156983174,3.953346911425626,geometry_msgs/msg/TwistWithCovariance,geometry_msgs/msg/Twist,geometry_msgs/msg/Vector3,-0.015649466717346752,0.021830135744697783,0.024447267409439113,geometry_msgs/msg/Vector3,0.05312486204767256,-0.19283813781329787,-0.00453680050971835
1760946529.3864205,nav_msgs/msg/Odometry,vehicle/Ground_Truth,std_msgs/msg/Header,world_ned,builtin_interfaces/msg/Time,386228370,1760946529,geometry_msgs/msg/PoseWithCovariance,geometry_msgs/msg/Pose,geometry_msgs/msg/Quaternion,0.9994967471781171,-0.01977579052816537,0.02263404833199641,-0.01014250193266195,geometry_msgs/msg/Point,24.197005891643574,-1.3325174885459212,3.9529933079432977,geometry_msgs/msg/TwistWithCovariance,geometry_msgs/msg/Twist,geometry_msgs/msg/Vector3,0.021222204974279422,-0.047068906331284924,-0.08297516708921976,geometry_msgs/msg/Vector3,0.07449221187887678,-0.2043166823351795,-0.012771989774688816
1760946529.4914412,nav_msgs/msg/Odometry,vehicle/Ground_Truth,std_msgs/msg/Header,world_ned,builtin_interfaces/msg/Time,491386549,1760946529,geometry_msgs/msg/PoseWithCovariance,geometry_msgs/msg/Pose,geometry_msgs/msg/Quaternion,0.9995172510641612,-0.018801410051692054,0.020107452748764954,-0.014403546409367713,geometry_msgs/msg/Point,24.20506781115746,-1.3544776371268687,3.9517304876116324,geometry_msgs/msg/TwistWithCovariance,geometry_msgs/msg/Twist,geometry_msgs/msg/Vector3,0.021222204974279426,-0.047068906331284924,-0.08297516708921976,geometry_msgs/msg/Vector3,0.09104649360088014,-0.21509863418778402,-0.02088057479567492
1760946529.5898986,nav_msgs/msg/Odometry,vehicle/Ground_Truth,std_msgs/msg/Header,world_ned,builtin_interfaces/msg/Time,589841664,1760946529,geometry_msgs/msg/PoseWithCovariance,geometry_msgs/msg/Pose,geometry_msgs/msg/Quaternion,0.999512835354186,-0.017858004640832096,0.017661871583597367,-0.018526789377774005,geometry_msgs/msg/Point,24.213622149041868,-1.3767191462635018,3.949775310364327,geometry_msgs/msg/TwistWithCovariance,geometry_msgs/msg/Twist,geometry_msgs/msg/Vector3,0.021222204974279426,-0.047068906331284924,-0.08297516708921976,geometry_msgs/msg/Vector3,0.09419959223087561,-0.22192503642988168,-0.02741392900516661
1760946529.691634,nav_msgs/msg/Odometry,vehicle/Ground_Truth,std_msgs/msg/Header,world_ned,builtin_interfaces/msg/Time,691575383,1760946529,geometry_msgs/msg/PoseWithCovariance,geometry_msgs/msg/Pose,geometry_msgs/msg/Quaternion,0.9994845592407418,-0.016914172923092732,0.015215868793645258,-0.022649590074049368,geometry_msgs/msg/Point,24.221639311769803,-1.3995605874373793,3.9472793340151844,geometry_msgs/msg/TwistWithCovariance,geometry_msgs/msg/Twist,geometry_msgs/msg/Vector3,0.021222204974279422,-0.04706890633128492,-0.08297516708921975,geometry_msgs/msg/Vector3,0.08439015346617736,-0.2252680083753178,-0.032303287505889205
1760946529.7901535,nav_msgs/msg/Odometry,vehicle/Ground_Truth,std_msgs/msg/Header,world_ned,builtin_interfaces/msg/Time,790084287,1760946529,geometry_msgs/msg/PoseWithCovariance,geometry_msgs/msg/Pose,geometry_msgs/msg/Quaternion,0.9994324233988366,-0.01596993742965881,0.012769502769970962,-0.026771850078562167,geometry_msgs/msg/Point,24.227859121305023,-1.4225822995973123,3.9444372835330377,geometry_msgs/msg/TwistWithCovariance,geometry_msgs/msg/Twist,geometry_msgs/msg/Vector3,0.021222204974279422,-0.04706890633128491,-0.08297516708921976,geometry_msgs/msg/Vector3,0.06216457361602361,-0.2254069454019141,-0.035296669739094025
1760946529.892078,nav_msgs/msg/Odometry,vehicle/Ground_Truth,std_msgs/msg/Header,world_ned,builtin_interfaces/msg/Time,891978564,1760946529,geometry_msgs/msg/PoseWithCovariance,geometry_msgs/msg/Pose,geometry_msgs/msg/Quaternion,0.9994043023665005,-0.014136304241333553,0.009455631365653078,-0.03002992422903943,geometry_msgs/msg/Point,24.231287285033396,-1.445379261025364,3.941472757745328,geometry_msgs/msg/TwistWithCovariance,geometry_msgs/msg/Twist,geometry_msgs/msg/Vector3,0.041610741607437385,-0.06643287021146624,-0.06349987394609169,geometry_msgs/msg/Vector3,0.0343186041118638,-0.22455237006970682,-0.03518538581770293
1760946529.9906497,nav_msgs/msg/Odometry,vehicle/Ground_Truth,std_msgs/msg/Header,world_ned,builtin_interfaces/msg/Time,990591508,1760946529,geometry_msgs/msg/PoseWithCovariance,geometry_msgs/msg/Pose,geometry_msgs/msg/Quaternion,0.9993570693669854,-0.01218680022661483,0.006028842469450385,-0.03317503375952173,geometry_msgs/msg/Point,24.23203483165937,-1.4680147896965312,3.938690249480957,geometry_msgs/msg/TwistWithCovariance,geometry_msgs/msg/Twist,geometry_msgs/msg/Vector3,0.04161074160743739,-0.06643287021146621,-0.06349987394609169,geometry_msgs/msg/Vector3,0.010897019526278055,-0.22504595542400416,-0.031293966293071115
1760946530.0889535,nav_msgs/msg/Odometry,vehicle/Ground_Truth,std_msgs/msg/Header,world_ned,builtin_interfaces/msg/Time,88903365,1760946530,geometry_msgs/msg/PoseWithCovariance,geometry_msgs/msg/Pose,geometry_msgs/msg/Quaternion,0.9992844153289918,-0.010236986211471833,0.0026019002152137113,-0.036319299403639295,geometry_msgs/msg/Point,24.230553168854712,-1.4905968551341922,3.936404378275937,geometry_msgs/msg/TwistWithCovariance,geometry_msgs/msg/Twist,geometry_msgs/msg/Vector3,0.041610741607437385,-0.06643287021146621,-0.06349987394609168,geometry_msgs/msg/Vector3,-0.00792278051963537,-0.2266417208387137,-0.024165938298914884
1760946530.190795,nav_msgs/msg/Odometry,vehicle/Ground_Truth,std_msgs/msg/Header,world_ned,builtin_interfaces/msg/Time,190715153,1760946530,geometry_msgs/msg/PoseWithCovariance,geometry_msgs/msg/Pose,geometry_msgs/msg/Quaternion,0.9991863421006493,-0.008286911794086766,-0.0008251082245816728,-0.03946264117946281,geometry_msgs/msg/Point,24.227276458469692,-1.513244500569674,3.934881134440732,geometry_msgs/msg/TwistWithCovariance,geometry_msgs/msg/Twist,geometry_msgs/msg/Vector3,0.041610741607437385,-0.06643287021146621,-0.06349987394609168,geometry_msgs/msg/Vector3,-0.022329251083552618,-0.22908454246712032,-0.014362517629490569
1760946530.2893374,nav_msgs/msg/Odometry,vehicle/Ground_Truth,std_msgs/msg/Header,world_ned,builtin_interfaces/msg/Time,289255827,1760946530,geometry_msgs/msg/PoseWithCovariance,geometry_msgs/msg/Pose,geometry_msgs/msg/Quaternion,0.9991265570078858,-0.006435897216520452,-0.0029384194053689717,-0.04118334614846776,geometry_msgs/msg/Point,24.222619862803302,-1.5359963388295146,3.9343376066715776,geometry_msgs/msg/TwistWithCovariance,geometry_msgs/msg/Twist,geometry_msgs/msg/Vector3,0.03265434727909137,0.011676447149837994,0.02266014593677677,geometry_msgs/msg/Vector3,-0.0332512681156668,-0.23185277416382818,-0.002844963143348681
1760946530.3911338,nav_msgs/msg/Odometry,vehicle/Ground_Truth,std_msgs/msg/Header,world_ned,builtin_interfaces/msg/Time,391087215,1760946530,geometry_msgs/msg/PoseWithCovariance,geometry_msgs/msg/Pose,geometry_msgs/msg/Quaternion,0.9991832927681568,-0.004784044008728021,-0.002415102237639324,-0.04005031406978272,geometry_msgs/msg/Point,24.216962499269965,-1.558837115645325,3.934801833598393,geometry_msgs/msg/TwistWithCovariance,geometry_msgs/msg/Twist,geometry_msgs/msg/Vector3,0.032654347279091375,0.011676447149837992,0.022660145936776774,geometry_msgs/msg/Vector3,-0.041901857598037905,-0.23242755452875016,0.007151995277483741
1760946530.489345,nav_msgs/msg/Odometry,vehicle/Ground_Truth,std_msgs/msg/Header,world_ned,builtin_interfaces/msg/Time,489309153,1760946530,geometry_msgs/msg/PoseWithCovariance,geometry_msgs/msg/Pose,geometry_msgs/msg/Quaternion,0.9992357425711451,-0.003132170279968022,-0.001891774710424144,-0.0389171101968594,geometry_msgs/msg/Point,24.21065145223752,-1.5815391925679894,3.936105217308322,geometry_msgs/msg/TwistWithCovariance,geometry_msgs/msg/Twist,geometry_msgs/msg/Vector3,0.03265434727909137,0.011676447149837994,0.02266014593677677,geometry_msgs/msg/Vector3,-0.04765461613525253,-0.2305168222053253,0.01555119061666604
1760946530.5911198,nav_msgs/msg/Odometry,vehicle/Ground_Truth,std_msgs/msg/Header,world_ned,builtin_interfaces/msg/Time,591053442,1760946530,geometry_msgs/msg/PoseWithCovariance,geometry_msgs/msg/Pose,geometry_msgs/msg/Quaternion,0.9992839061918696,-0.001480283115887181,-0.0013684390685160127,-0.037783739390528634,geometry_msgs/msg/Point,24.203952458206295,-1.6039706138336507,3.9381193448219625,geometry_msgs/msg/TwistWithCovariance,geometry_msgs/msg/Twist,geometry_msgs/msg/Vector3,0.032654347279091375,0.011676447149837996,0.022660145936776774,geometry_msgs/msg/Vector3,-0.05084135547542586,-0.22612227960248504,0.02278712778108087
1760946530.689318,nav_msgs/msg/Odometry,vehicle/Ground_Truth,std_msgs/msg/Header,world_ned,builtin_interfaces/msg/Time,689270309,1760946530,geometry_msgs/msg/PoseWithCovariance,geometry_msgs/msg/Pose,geometry_msgs/msg/Quaternion,0.9993277834237343,0.000171610397809748,-0.0008450975567424335,-0.03665020651233708,geometry_msgs/msg/Point,24.197169396013887,-1.625796010177866,3.9407352097851884,geometry_msgs/msg/TwistWithCovariance,geometry_msgs/msg/Twist,geometry_msgs/msg/Vector3,0.032654347279091375,0.011676447149837994,0.022660145936776767,geometry_msgs/msg/Vector3,-0.05144019202524528,-0.21896033432283324,0.029092445790577334
1760946530.7913234,nav_msgs/msg/Odometry,vehicle/Ground_Truth,std_msgs/msg/Header,world_ned,builtin_interfaces/msg/Time,791265756,1760946530,geometry_msgs/msg/PoseWithCovariance,geometry_msgs/msg/Pose,geometry_msgs/msg/Quaternion,0.9993233869580671,0.001380735225749845,0.0007580897009495644,-0.03674625353555056,geometry_msgs/msg/Point,24.190583459534533,-1.646782907855186,3.9438730509935493,geometry_msgs/msg/TwistWithCovariance,geometry_msgs/msg/Twist,geometry_msgs/msg/Vector3,0.009650117677459439,0.06235618659772622,-0.03612009945260144,geometry_msgs/msg/Vector3,-0.048550547524611624,-0.2090187544196891,0.033946068851408696
1760946530.8899305,nav_msgs/msg/Odometry,vehicle/Ground_Truth,std_msgs/msg/Header,world_ned,builtin_interfaces/msg/Time,889860110,1760946530,geometry_msgs/msg/PoseWithCovariance,geometry_msgs/msg/Pose,geometry_msgs/msg/Quaternion,0.9992473985397743,0.0019760433679215685,0.003858230930244708,-0.03854667064988211,geometry_msgs/msg/Point,24.184577482829894,-1.6668587045829732,3.9472582210884646,geometry_msgs/msg/TwistWithCovariance,geometry_msgs/msg/Twist,geometry_msgs/msg/Vector3,0.00965011767745944,0.062356186597726224,-0.03612009945260144,geometry_msgs/msg/Vector3,-0.040457862502993644,-0.20050026214736943,0.033630851199724796
1760946530.9916937,nav_msgs/msg/Odometry,vehicle/Ground_Truth,std_msgs/msg/Header,world_ned,builtin_interfaces/msg/Time,991624408,1760946530,geometry_msgs/msg/PoseWithCovariance,geometry_msgs/msg/Pose,geometry_msgs/msg/Quaternion,0.9991582075218102,0.0025713254015341646,0.006958321182495475,-0.04034657846464779,geometry_msgs/msg/Point,24.1796587759396,-1.6862619616384584,3.9502931380403776,geometry_msgs/msg/TwistWithCovariance,geometry_msgs/msg/Twist,geometry_msgs/msg/Vector3,0.009650117677459437,0.06235618659772622,-0.03612009945260143,geometry_msgs/msg/Vector3,-0.026771827224501173,-0.19486223683705448,0.02689114604258623
1760946531.0902612,nav_msgs/msg/Odometry,vehicle/Ground_Truth,std_msgs/msg/Header,world_ned,builtin_interfaces/msg/Time,90220502,1760946531,geometry_msgs/msg/PoseWithCovariance,geometry_msgs/msg/Pose,geometry_msgs/msg/Quaternion,0.9990558150826145,0.0031665734613984813,0.010058319497626094,-0.04214595319849753,geometry_msgs/msg/Point,24.176369500899835,-1.7054105308706047,3.952279730361005,geometry_msgs/msg/TwistWithCovariance,geometry_msgs/msg/Twist,geometry_msgs/msg/Vector3,0.00965011767745944,0.06235618659772622,-0.03612009945260143,geometry_msgs/msg/Vector3,-0.0068453180129931695,-0.19273914124777808,0.012997907507264069
1760946531.1920524,nav_msgs/msg/Odometry,vehicle/Ground_Truth,std_msgs/msg/Header,world_ned,builtin_interfaces/msg/Time,191987641,1760946531,geometry_msgs/msg/PoseWithCovariance,geometry_msgs/msg/Pose,geometry_msgs/msg/Quaternion,0.9989402225750522,0.0037617796827732683,0.013158184916773131,-0.04394477107710787,geometry_msgs/msg/Point,24.175300720480088,-1.7256000514268877,3.952400117790699,geometry_msgs/msg/TwistWithCovariance,geometry_msgs/msg/Twist,geometry_msgs/msg/Vector3,0.00965011767745944,0.06235618659772621,-0.03612009945260144,geometry_msgs/msg/Vector3,0.020794462652695286,-0.19477491605001665,-0.00939589916997323
1760946531.2905378,nav_msgs/msg/Odometry,vehicle/Ground_Truth,std_msgs/msg/Header,world_ned,builtin_interfaces/msg/Time,290487046,1760946531,geometry_msgs/msg/PoseWithCovariance,geometry_msgs/msg/Pose,geometry_msgs/msg/Quaternion,0.9988434310612718,0.0027805987502989623,0.01619089878112421,-0.045187645357946525,geometry_msgs/msg/Point,24.176766382166498,-1.744568337846069,3.950218738399558,geometry_msgs/msg/TwistWithCovariance,geometry_msgs/msg/Twist,geometry_msgs/msg/Vector3,-0.02340450761963837,0.05953831773779639,-0.02491203248277141,geometry_msgs/msg/Vector3,0.0450930747212718,-0.19778932785983114,-0.03127715200492304
1760946531.3887863,nav_msgs/msg/Odometry,vehicle/Ground_Truth,std_msgs/msg/Header,world_ned,builtin_interfaces/msg/Time,388724234,1760946531,geometry_msgs/msg/PoseWithCovariance,geometry_msgs/msg/Pose,geometry_msgs/msg/Quaternion,0.9987363270691159,0.0017261703688341795,0.019220310608181773,-0.046404191496833634,geometry_msgs/msg/Point,24.18019823002838,-1.764827024631653,3.9459437235466677,geometry_msgs/msg/TwistWithCovariance,geometry_msgs/msg/Twist,geometry_msgs/msg/Vector3,-0.023404507619638373,0.05953831773779639,-0.024912032482771407,geometry_msgs/msg/Vector3,0.06169771541108616,-0.19905289951616595,-0.0481694585802357
1760946531.4905565,nav_msgs/msg/Odometry,vehicle/Ground_Truth,std_msgs/msg/Header,world_ned,builtin_interfaces/msg/Time,490509632,1760946531,geometry_msgs/msg/PoseWithCovariance,geometry_msgs/msg/Pose,geometry_msgs/msg/Quaternion,0.9986174573527963,0.0006717216520278116,0.02224949600823759,-0.047620190965993854,geometry_msgs/msg/Point,24.184672485637037,-1.7851916164588735,3.940273897141265,geometry_msgs/msg/TwistWithCovariance,geometry_msgs/msg/Twist,geometry_msgs/msg/Vector3,-0.023404507619638377,0.059538317737796394,-0.024912032482771414,geometry_msgs/msg/Vector3,0.0688992307559757,-0.19844900669576684,-0.058805830534184575
1760946531.5920625,nav_msgs/msg/Odometry,vehicle/Ground_Truth,std_msgs/msg/Header,world_ned,builtin_interfaces/msg/Time,592032173,1760946531,geometry_msgs/msg/PoseWithCovariance,geometry_msgs/msg/Pose,geometry_msgs/msg/Quaternion,0.9984868233126712,-0.00038273497807008426,0.025278419295634652,-0.04883562944020564,geometry_msgs/msg/Point,24.18929344117431,-1.805504267045153,3.9338338275304885,geometry_msgs/msg/TwistWithCovariance,geometry_msgs/msg/Twist,geometry_msgs/msg/Vector3,-0.023404507619638373,0.05953831773779638,-0.024912032482771407,geometry_msgs/msg/Vector3,0.06647051007658875,-0.19607599764266698,-0.06326974824570737
1760946531.6904194,nav_msgs/msg/Odometry,vehicle/Ground_Truth,std_msgs/msg/Header,world_ned,builtin_interfaces/msg/Time,690361930,1760946531,geometry_msgs/msg/PoseWithCovariance,geometry_msgs/msg/Pose,geometry_msgs/msg/Quaternion,0.9984311595089383,-0.0013827464490514438,0.025021204896186634,-0.050072417950779956,geometry_msgs/msg/Point,24.193162929150912,-1.8254104144952974,3.9273068666890154,geometry_msgs/msg/TwistWithCovariance,geometry_msgs/msg/Twist,geometry_msgs/msg/Vector3,-0.017133769721276997,-0.03538901553235899,-0.025448063262892617,geometry_msgs/msg/Vector3,0.05599860680128218,-0.19231376947821693,-0.06223142497922257
1760946531.7920868,nav_msgs/msg/Odometry,vehicle/Ground_Truth,std_msgs/msg/Header,world_ned,builtin_interfaces/msg/Time,792033559,1760946531,geometry_msgs/msg/PoseWithCovariance,geometry_msgs/msg/Pose,geometry_msgs/msg/Quaternion,0.9984078014044848,-0.0023584264061676566,0.02329577269607088,-0.05131867977688527,geometry_msgs/msg/Point,24.195930172590636,-1.8448698618110966,3.9212122050212734,geometry_msgs/msg/TwistWithCovariance,geometry_msgs/msg/Twist,geometry_msgs/msg/Vector3,-0.017133769721276993,-0.035389015532359,-0.025448063262892617,geometry_msgs/msg/Vector3,0.0440288999228184,-0.18790948769093538,-0.05635995625156941
